stop_code,stop_id,stop_lat,stop_lon,stop_name,stop_url,wheelchair_boarding
01012,01012,1.29684825487647,103.85253591654006,Hotel Grand Pacific,https://busrouter.sg/#/stops/01012,1
01013,01013,1.29770970610083,103.8532247463225,St. Joseph's Ch,https://busrouter.sg/#/stops/01013,1
01019,01019,1.29698951191332,103.85302201172507,Bras Basah Cplx,https://busrouter.sg/#/stops/01019,1
01029,01029,1.2966729849642,103.85441422464267,Opp Natl Lib,https://busrouter.sg/#/stops/01029,1
01039,01039,1.29820784139683,103.85549139837407,Bugis Cube,https://busrouter.sg/#/stops/01039,1
01059,01059,1.30075679526626,103.85611040457583,Bugis Stn Exit B,https://busrouter.sg/#/stops/01059,1
01109,01109,1.30358577565355,103.85650372998224,Queen St Ter,https://busrouter.sg/#/stops/01109,1
01112,01112,1.30009212839081,103.85520027125814,Opp Bugis Stn Exit C,https://busrouter.sg/#/stops/01112,1
01113,01113,1.30117297541547,103.8561140106393,Bugis Stn Exit A,https://busrouter.sg/#/stops/01113,1
01119,01119,1.2996041093804,103.85512934079571,Aft Bugis Stn Exit C,https://busrouter.sg/#/stops/01119,1
01121,01121,1.30393809691048,103.85867999243207,Stamford Pr Sch,https://busrouter.sg/#/stops/01121,1
01129,01129,1.30350269187301,103.85864530718491,Opp Stamford Pr Sch,https://busrouter.sg/#/stops/01129,1
01139,01139,1.30033057855542,103.85716080665901,Parkview Sq,https://busrouter.sg/#/stops/01139,1
01211,01211,1.30551803523268,103.8605449516032,Opp Blk 461,https://busrouter.sg/#/stops/01211,1
01219,01219,1.30526598535719,103.86072019914616,Blk 461,https://busrouter.sg/#/stops/01219,1
01229,01229,1.30337552638813,103.85963089198265,Bef Sultan Mque,https://busrouter.sg/#/stops/01229,1
01231,01231,1.3032499999752,103.8610830559663,Opp Textile Ctr,https://busrouter.sg/#/stops/01231,1
01239,01239,1.30291236608351,103.86161817611134,Sultan Plaza,https://busrouter.sg/#/stops/01239,1
01311,01311,1.3070916463394,103.86219695240973,Lavender Stn Exit B,https://busrouter.sg/#/stops/01311,1
01319,01319,1.30757426746418,103.86325596123476,Lavender Stn Exit A/ICA,https://busrouter.sg/#/stops/01319,1
01329,01329,1.30495670239172,103.86363028484124,Blk 8,https://busrouter.sg/#/stops/01329,1
01339,01339,1.30774601733202,103.8642627465441,Bef Crawford Bridge,https://busrouter.sg/#/stops/01339,1
01341,01341,1.30647555600578,103.86452527798744,Southbank,https://busrouter.sg/#/stops/01341,1
01349,01349,1.30568635716829,103.86543994417883,Opp Blk 4,https://busrouter.sg/#/stops/01349,1
01411,01411,1.30211332865049,103.86295598167331,Opp St. John HQ,https://busrouter.sg/#/stops/01411,1
01419,01419,1.3020199999911,103.86326333301203,St. John HQ,https://busrouter.sg/#/stops/01419,1
01421,01421,1.30338444400173,103.86483888898641,Opp Golden Mile Cplx,https://busrouter.sg/#/stops/01421,1
01429,01429,1.3032136089394,103.86501584807763,Golden Mile Cplx,https://busrouter.sg/#/stops/01429,1
01511,01511,1.29919826103807,103.85864518302436,Opp The Gateway,https://busrouter.sg/#/stops/01511,1
01519,01519,1.29907492488417,103.8589102973441,The Gateway,https://busrouter.sg/#/stops/01519,1
01521,01521,1.30088304437602,103.86066098182194,Opp Plaza Parkroyal,https://busrouter.sg/#/stops/01521,1
01529,01529,1.30041667676526,103.86044115259938,Plaza Parkroyal,https://busrouter.sg/#/stops/01529,1
01541,01541,1.29886465442254,103.85734583628746,Bugis Stn Exit D,https://busrouter.sg/#/stops/01541,1
01549,01549,1.30069868861162,103.85873120467069,Opp Duo Residences,https://busrouter.sg/#/stops/01549,1
01559,01559,1.30168731070562,103.85752923961614,Landmark Village Hotel,https://busrouter.sg/#/stops/01559,1
01611,01611,1.29527259171342,103.85533686181174,Aft Raffles Hotel,https://busrouter.sg/#/stops/01611,1
01619,01619,1.29428694178246,103.85503809424233,Esplanade Stn Exit F,https://busrouter.sg/#/stops/01619,1
01621,01621,1.29695888888745,103.85655611109846,Opp Shaw Twrs,https://busrouter.sg/#/stops/01621,1
01629,01629,1.29695972219958,103.85686527780177,Shaw Twrs,https://busrouter.sg/#/stops/01629,1
01631,01631,1.29693614589482,103.85580555528077,Aft Beach Rd,https://busrouter.sg/#/stops/01631,1
01639,01639,1.29738750001468,103.85557583297624,Bef Beach Rd,https://busrouter.sg/#/stops/01639,1
02029,02029,1.28879015142476,103.85293318066766,Opp S'pore Cricket Club,https://busrouter.sg/#/stops/02029,1
02049,02049,1.29452091230981,103.85402155505173,Raffles Hotel,https://busrouter.sg/#/stops/02049,1
02051,02051,1.2895030556082,103.85903388899317,The Float @ Marina Bay,https://busrouter.sg/#/stops/02051,1
02061,02061,1.2899638888957,103.85640388886262,The Esplanade,https://busrouter.sg/#/stops/02061,1
02089,02089,1.29152694444975,103.8592061110504,Promenade Stn/Pan Pacific,https://busrouter.sg/#/stops/02089,1
02099,02099,1.29147264805943,103.86148558380779,Marina Ctr Ter,https://busrouter.sg/#/stops/02099,1
02101,02101,1.28938483786533,103.86183148116275,AFT S'PORE FLYER,https://busrouter.sg/#/stops/02101,1
02111,02111,1.29095592348389,103.85453419435228,Esplanade Bridge,https://busrouter.sg/#/stops/02111,1
02119,02119,1.29184407356581,103.85534334305085,Opp War Memorial Pk,https://busrouter.sg/#/stops/02119,1
02141,02141,1.29576571603037,103.85933814632858,Suntec Twr Two,https://busrouter.sg/#/stops/02141,1
02149,02149,1.29560459817725,103.85955533029184,Suntec Twr Three,https://busrouter.sg/#/stops/02149,1
02151,02151,1.29317776320814,103.85784623004031,Suntec Convention Ctr,https://busrouter.sg/#/stops/02151,1
02159,02159,1.29360811227161,103.85840672828635,Opp Suntec Convention Ctr,https://busrouter.sg/#/stops/02159,1
02161,02161,1.29268553508737,103.86093156188176,Promenade Stn,https://busrouter.sg/#/stops/02161,1
02169,02169,1.29333836780589,103.86070849052753,Promenade Stn Exit B,https://busrouter.sg/#/stops/02169,1
02171,02171,1.29070000003898,103.86092194446034,Opp The Ritz-Carlton,https://busrouter.sg/#/stops/02171,1
02181,02181,1.28947444402148,103.85098166700017,Supreme Ct,https://busrouter.sg/#/stops/02181,1
03011,03011,1.28561840945474,103.85342223246427,Fullerton Sq,https://busrouter.sg/#/stops/03011,1
03019,03019,1.284245000013,103.85310805599599,OUE Bayfront,https://busrouter.sg/#/stops/03019,1
03021,03021,1.28255524603003,103.84998903789258,Prudential Twr,https://busrouter.sg/#/stops/03021,1
03031,03031,1.28207492207952,103.85086074925066,Raffles Pl Stn Exit F,https://busrouter.sg/#/stops/03031,1
03041,03041,1.28179509394707,103.84893207391676,Telok Ayer Stn Exit A,https://busrouter.sg/#/stops/03041,1
03059,03059,1.281111,103.851461,One Raffles Quay,https://busrouter.sg/#/stops/03059,1
03071,03071,1.27990609626764,103.84940030424481,OPP SO SOFITEL S'PORE,https://busrouter.sg/#/stops/03071,1
03111,03111,1.2778259536079,103.8481011719729,Aft Capital Twr,https://busrouter.sg/#/stops/03111,1
03129,03129,1.27807003532092,103.84956718123823,UIC Bldg,https://busrouter.sg/#/stops/03129,1
03151,03151,1.27892124625262,103.84776234627124,Opp GB Bldg,https://busrouter.sg/#/stops/03151,1
03217,03217,1.27552218897645,103.8479443674916,Opp AXA Twr,https://busrouter.sg/#/stops/03217,1
03218,03218,1.2740788888387,103.84687388890413,Opp MAS Bldg,https://busrouter.sg/#/stops/03218,1
03222,03222,1.27397836925637,103.84489562922414,Hub Synergy Pt,https://busrouter.sg/#/stops/03222,1
03223,03223,1.2757033952327,103.84632468221952,Tanjong Pagar Stn Exit C,https://busrouter.sg/#/stops/03223,1
03239,03239,1.27464226961973,103.84756721372408,Shenton Way Ter,https://busrouter.sg/#/stops/03239,1
03241,03241,1.27456,103.84537,Mapletree Anson,https://busrouter.sg/#/stops/03241,1
03331,03331,1.27663307202767,103.86076808024792,Bef Marina Gdns Dr,https://busrouter.sg/#/stops/03331,1
03339,03339,1.27498516412784,103.85950016250487,Aft Marina Gdns Dr,https://busrouter.sg/#/stops/03339,1
03341,03341,1.27959780011944,103.8643376844082,Bef Gdns by the Bay,https://busrouter.sg/#/stops/03341,1
03349,03349,1.27965600609923,103.8647780795552,Aft Gdns by the Bay,https://busrouter.sg/#/stops/03349,1
03361,03361,1.279917,103.868895,Opp Marina Barrage,https://busrouter.sg/#/stops/03361,1
03369,03369,1.27960772061959,103.8698744774074,Marina Barrage,https://busrouter.sg/#/stops/03369,1
03371,03371,1.28066479303461,103.86626955523418,Gdns by the Bay,https://busrouter.sg/#/stops/03371,1
03381,03381,1.28162601329006,103.85306513725685,The Sail,https://busrouter.sg/#/stops/03381,1
03391,03391,1.28037660340352,103.85498006767988,Marina Bay Financial Ctr,https://busrouter.sg/#/stops/03391,1
03411,03411,1.27159299884076,103.86300900488229,Opp Marina Sth Pier Stn,https://busrouter.sg/#/stops/03411,1
03419,03419,1.27127698470973,103.86297693157816,Marina Sth Pier Stn,https://busrouter.sg/#/stops/03419,1
03421,03421,1.26694090294712,103.85964778134667,Marina Bay Cruise Ctr,https://busrouter.sg/#/stops/03421,1
03501,03501,1.28500467671367,103.8606110538643,Marina Bay Sands Theatre,https://busrouter.sg/#/stops/03501,1
03509,03509,1.28314999997332,103.86004388891767,Bayfront Stn Exit B/MBS,https://busrouter.sg/#/stops/03509,1
03511,03511,1.28194779470571,103.85897064872482,Aft Bayfront Stn Exit E,https://busrouter.sg/#/stops/03511,1
03519,03519,1.28124500000125,103.85884799997385,Bayfront Stn Exit A,https://busrouter.sg/#/stops/03519,1
03529,03529,1.27939957419063,103.85278769921703,Downtown Stn,https://busrouter.sg/#/stops/03529,1
03539,03539,1.2775330547661,103.85561610012866,Marina Bay Stn,https://busrouter.sg/#/stops/03539,1
04019,04019,1.29807216909408,103.84975607305783,OPP BENCOOLEN STN EXIT B,https://busrouter.sg/#/stops/04019,1
04029,04029,1.29948166696821,103.85092666701239,BEF BENCOOLEN STN EXIT A,https://busrouter.sg/#/stops/04029,1
04111,04111,1.29395444170081,103.85139096636622,Capitol Bldg,https://busrouter.sg/#/stops/04111,1
04121,04121,1.29618544092334,103.84958029974611,SMU,https://busrouter.sg/#/stops/04121,1
04142,04142,1.2930982644668,103.84965994500728,Armenian Ch,https://busrouter.sg/#/stops/04142,1
04143,04143,1.29411640848293,103.85020606905503,Stamford Ct,https://busrouter.sg/#/stops/04143,1
04149,04149,1.29276132399953,103.84983741344308,Grand Pk City Hall,https://busrouter.sg/#/stops/04149,1
04151,04151,1.29533777799211,103.85113972198121,Cath Of The Good Shepherd,https://busrouter.sg/#/stops/04151,1
04159,04159,1.29489484954945,103.85108138663934,Aft Chijmes,https://busrouter.sg/#/stops/04159,1
04167,04167,1.29250006522444,103.85145315468638,City Hall Stn Exit B,https://busrouter.sg/#/stops/04167,1
04168,04168,1.29208221483052,103.85125994680256,Aft City Hall Stn Exit B,https://busrouter.sg/#/stops/04168,1
04179,04179,1.29647916306741,103.85147164487202,AFT BRAS BASAH STN EXIT A,https://busrouter.sg/#/stops/04179,1
04211,04211,1.29043611099357,103.84712444398055,Clarke Quay,https://busrouter.sg/#/stops/04211,1
04219,04219,1.29096802754795,103.84686777836987,Opp Clarke Quay,https://busrouter.sg/#/stops/04219,1
04222,04222,1.28898962180798,103.84708976365569,Clarke Quay Stn Exit E,https://busrouter.sg/#/stops/04222,1
04223,04223,1.29084476137495,103.84857901022669,Old Hill St Police Stn,https://busrouter.sg/#/stops/04223,1
04229,04229,1.29044830830726,103.84875123545265,High St Ctr,https://busrouter.sg/#/stops/04229,1
04239,04239,1.28882717929599,103.8474938118651,Opp Clarke Quay Stn,https://busrouter.sg/#/stops/04239,1
04249,04249,1.29043039362749,103.85026216508201,Opp The Treasury,https://busrouter.sg/#/stops/04249,1
04251,04251,1.28973833297563,103.84888472198024,Opp High St Ctr,https://busrouter.sg/#/stops/04251,1
04311,04311,1.29464575337351,103.8439214229312,Aft River Valley Rd,https://busrouter.sg/#/stops/04311,1
04321,04321,1.2921400077773,103.84303646191061,UE Sq,https://busrouter.sg/#/stops/04321,1
04329,04329,1.29197057108024,103.84328384973516,Opp UE Sq,https://busrouter.sg/#/stops/04329,1
04331,04331,1.29183939431601,103.84504089382705,BEF FORT CANNING STN,https://busrouter.sg/#/stops/04331,1
04339,04339,1.29221099996741,103.84500500002959,FORT CANNING STN EXIT B,https://busrouter.sg/#/stops/04339,1
05009,05009,1.28592554082489,103.84923642965272,Opp OCBC Ctr,https://busrouter.sg/#/stops/05009,1
05012,05012,1.28154583300728,103.84087722199499,Bef Pearl'S Hill Terr,https://busrouter.sg/#/stops/05012,1
05013,05013,1.28406979945936,103.84299874303983,Chinatown Stn Exit C,https://busrouter.sg/#/stops/05013,1
05019,05019,1.28118388885484,103.84105000000471,Aft Duxton Plain Pk,https://busrouter.sg/#/stops/05019,1
05022,05022,1.28571089865595,103.84437203405348,Aft Chinatown Stn Exit D,https://busrouter.sg/#/stops/05022,1
05023,05023,1.28692928357498,103.84540375642477,Opp Hong Lim Pk,https://busrouter.sg/#/stops/05023,1
05029,05029,1.28712283362119,103.84819780822524,Boat Quay,https://busrouter.sg/#/stops/05029,1
05039,05039,1.28293819129834,103.84254276754574,New Bridge Ctr,https://busrouter.sg/#/stops/05039,1
05049,05049,1.28531114761754,103.84455070696784,Chinatown Stn Exit E,https://busrouter.sg/#/stops/05049,1
05059,05059,1.28676420118491,103.84575036447065,Hong Lim Pk,https://busrouter.sg/#/stops/05059,1
05069,05069,1.28027629959632,103.84029791443083,Outram Pk Stn Exit H,https://busrouter.sg/#/stops/05069,1
05129,05129,1.28601166699569,103.84634666701143,Opp One Upp Pickering,https://busrouter.sg/#/stops/05129,1
05131,05131,1.284073056,103.8453381,Opp Hong Lim Cplx,https://busrouter.sg/#/stops/05131,1
05189,05189,1.2820913960391,103.84528061446953,Opp Sri Mariamman Tp,https://busrouter.sg/#/stops/05189,1
05199,05199,1.28451455846092,103.84666049314171,Opp Hong Lim Cplx,https://busrouter.sg/#/stops/05199,1
05239,05239,1.27854113014976,103.8415105424013,Bef The Pinnacle@Duxton,https://busrouter.sg/#/stops/05239,1
05241,05241,1.28071988238536,103.84227488654868,Opp Blk 333,https://busrouter.sg/#/stops/05241,1
05259,05259,1.27979447837032,103.84262707605177,Aft Kreta Ayer Rd,https://busrouter.sg/#/stops/05259,1
05269,05269,1.28097747304602,103.84460051710637,Maxwell Rd FC,https://busrouter.sg/#/stops/05269,1
05271,05271,1.27975329525167,103.84382212419122,Opp Fairfield Meth Ch,https://busrouter.sg/#/stops/05271,1
05319,05319,1.284437,103.849114,OCBC Ctr,https://busrouter.sg/#/stops/05319,1
05411,05411,1.27519165673078,103.84309190393883,Tg Pagar Plaza,https://busrouter.sg/#/stops/05411,1
05419,05419,1.27470669455555,103.84318683838887,The Amara,https://busrouter.sg/#/stops/05419,1
05421,05421,1.27777470568529,103.84346347289251,Aft Craig Rd,https://busrouter.sg/#/stops/05421,1
05429,05429,1.27769413050075,103.84370654372525,Bef Craig Rd,https://busrouter.sg/#/stops/05429,1
05431,05431,1.27408,103.8420461,TOWER 15,https://busrouter.sg/#/stops/05431,1
05519,05519,1.27553472200739,103.84112694400494,Opp Maritime Hse,https://busrouter.sg/#/stops/05519,1
05521,05521,1.27676861098316,103.84059222200347,Maritime Hse,https://busrouter.sg/#/stops/05521,1
05629,05629,1.273211389,103.84187,Opp Southpoint,https://busrouter.sg/#/stops/05629,1
05631,05631,1.27346055934188,103.84034718190608,Blk 16,https://busrouter.sg/#/stops/05631,1
05641,05641,1.27272393115133,103.84140618785226,Bef Cantonment Rd,https://busrouter.sg/#/stops/05641,1
05649,05649,1.2723842122117,103.84093912218094,Opp Customs Port Br HQ,https://busrouter.sg/#/stops/05649,1
05651,05651,1.273218611,103.8430731,Opp Fuji Xerox Twrs,https://busrouter.sg/#/stops/05651,1
06011,06011,1.28165999996967,103.83801388886192,Opp Outram Pk Stn,https://busrouter.sg/#/stops/06011,1
06029,06029,1.28177041153491,103.8383828488293,Outram Pk Stn,https://busrouter.sg/#/stops/06029,1
06031,06031,1.28607055552165,103.83879166662209,Opp Blk 13,https://busrouter.sg/#/stops/06031,1
06039,06039,1.28705997883119,103.83962555611693,Blk 8,https://busrouter.sg/#/stops/06039,1
06049,06049,1.28474856880259,103.83517705055233,BEF OUTRAM FLYOVER,https://busrouter.sg/#/stops/06049,1
06051,06051,1.28475980959972,103.83405671725487,Blk 55,https://busrouter.sg/#/stops/06051,1
06069,06069,1.28623157720487,103.83496162445665,Aft Furama RiverFront,https://busrouter.sg/#/stops/06069,1
06071,06071,1.28685859481289,103.83360028266564,Blk 2B,https://busrouter.sg/#/stops/06071,1
06081,06081,1.28837086415387,103.83349881780524,Blk 94,https://busrouter.sg/#/stops/06081,1
06129,06129,1.29078162052352,103.83440916705554,Grand Copthorne Hotel,https://busrouter.sg/#/stops/06129,1
06131,06131,1.29152472200833,103.83222750001508,The Boys' Brigade HQ,https://busrouter.sg/#/stops/06131,1
06141,06141,1.28963300933974,103.83381241921823,Holiday Inn Atrium,https://busrouter.sg/#/stops/06141,1
06149,06149,1.28984045728104,103.83411526676929,Opp Holiday Inn Atrium,https://busrouter.sg/#/stops/06149,1
06151,06151,1.28870976841461,103.83737276969174,Hotel Miramar,https://busrouter.sg/#/stops/06151,1
06159,06159,1.28909385421188,103.8368794036018,Opp Hotel Miramar,https://busrouter.sg/#/stops/06159,1
06161,06161,1.28901705678419,103.83994286096711,Blk 2,https://busrouter.sg/#/stops/06161,1
06169,06169,1.28937078931125,103.83998944937589,River Pl Condo,https://busrouter.sg/#/stops/06169,1
06171,06171,1.286101944,103.8425356,Opp State Ct,https://busrouter.sg/#/stops/06171,1
06189,06189,1.28779136477868,103.84329428089559,Ctrl Sq,https://busrouter.sg/#/stops/06189,1
07011,07011,1.30099699058522,103.8498101874305,Peace Ctr,https://busrouter.sg/#/stops/07011,1
07021,07021,1.30324521574524,103.84995776766847,Selegie Ctr,https://busrouter.sg/#/stops/07021,1
07031,07031,1.30572083298412,103.85120583303191,Tekka Ctr,https://busrouter.sg/#/stops/07031,1
07111,07111,1.30879366465919,103.8531751994068,Broadway Hotel,https://busrouter.sg/#/stops/07111,1
07211,07211,1.31313747728456,103.8563561439714,Aft Farrer Pk Stn Exit G,https://busrouter.sg/#/stops/07211,1
07221,07221,1.314966,103.857819,Sri Vadapathira K Tp,https://busrouter.sg/#/stops/07221,1
07231,07231,1.309658889,103.8573711,Bef Tai Hoe Hotel,https://busrouter.sg/#/stops/07231,1
07241,07241,1.31557142083242,103.85900616698896,Bef S'Goon Rd,https://busrouter.sg/#/stops/07241,1
07249,07249,1.315368056,103.8594669,Aft Kempas Rd,https://busrouter.sg/#/stops/07249,1
07319,07319,1.31038833299803,103.85870666696984,Aft Allenby Rd,https://busrouter.sg/#/stops/07319,1
07329,07329,1.31284472583438,103.85989088288474,Hoa Nam Bldg,https://busrouter.sg/#/stops/07329,1
07331,07331,1.30824994545395,103.8589096071918,Aft King George's Ave,https://busrouter.sg/#/stops/07331,1
07351,07351,1.31351833300073,103.86054527803076,ARC 380,https://busrouter.sg/#/stops/07351,1
07359,07359,1.31368253065979,103.86071451807119,OPP ARC 380,https://busrouter.sg/#/stops/07359,1
07361,07361,1.31167636068313,103.86189483728585,Bef Kallang Bahru,https://busrouter.sg/#/stops/07361,1
07369,07369,1.31140805601851,103.86237888899062,Aft Kallang Bahru,https://busrouter.sg/#/stops/07369,1
07371,07371,1.30950750000455,103.86350138902452,Aft Kallang Rd,https://busrouter.sg/#/stops/07371,1
07379,07379,1.31017336740849,103.86338225534827,Aperia/Bef Kallang Rd,https://busrouter.sg/#/stops/07379,1
07419,07419,1.30653024120879,103.8561630249311,Opp Veerasamy Rd,https://busrouter.sg/#/stops/07419,1
07517,07517,1.30145216158073,103.85247781934106,IBIS S'PORE ON BENCOOLEN,https://busrouter.sg/#/stops/07517,1
07518,07518,1.30095828368506,103.85211175034802,OPP NAFA CAMPUS 3,https://busrouter.sg/#/stops/07518,1
07529,07529,1.30431906266143,103.85501564257024,JLN BESAR STN EXIT A,https://busrouter.sg/#/stops/07529,1
07531,07531,1.30365644370093,103.8525732326128,Rochor Stn,https://busrouter.sg/#/stops/07531,1
07539,07539,1.30461300741211,103.8520009720951,Opp Rochor Stn,https://busrouter.sg/#/stops/07539,1
07551,07551,1.30171975809706,103.8546132267025,Fu Lu Shou Cplx,https://busrouter.sg/#/stops/07551,1
07561,07561,1.29945446471936,103.85267983857253,Bef Waterloo St,https://busrouter.sg/#/stops/07561,1
07569,07569,1.29949531348401,103.85301395376233,Aft Waterloo St,https://busrouter.sg/#/stops/07569,1
07571,07571,1.30063444632288,103.85114009314601,SUNSHINE PLAZA,https://busrouter.sg/#/stops/07571,1
07589,07589,1.30320609782822,103.85549999983388,Ch of Our Lady of Lourdes,https://busrouter.sg/#/stops/07589,1
08011,08011,1.29706985017362,103.84361028672502,Opp Haw Par Glass Twr,https://busrouter.sg/#/stops/08011,1
08019,08019,1.29624633745957,103.84407009228418,Aft Haw Par Glass Twr,https://busrouter.sg/#/stops/08019,1
08031,08031,1.29831153783592,103.8452569595532,Dhoby Ghaut Stn Exit B,https://busrouter.sg/#/stops/08031,1
08041,08041,1.29811014243867,103.84780636909545,YMCA,https://busrouter.sg/#/stops/08041,1
08057,08057,1.29930997279734,103.84529021429745,Dhoby Ghaut Stn,https://busrouter.sg/#/stops/08057,1
08058,08058,1.2989583431631,103.84654115271174,Aft Dhoby Ghaut Stn,https://busrouter.sg/#/stops/08058,1
08069,08069,1.29821382250893,103.84936128375956,BENCOOLEN STN EXIT B,https://busrouter.sg/#/stops/08069,1
08079,08079,1.29921444445586,103.84910329217985,Sch of the Arts,https://busrouter.sg/#/stops/08079,1
08111,08111,1.29986928715834,103.84093746088925,Winsland Hse,https://busrouter.sg/#/stops/08111,1
08121,08121,1.30027569326586,103.83877618459663,Somerset Stn,https://busrouter.sg/#/stops/08121,1
08137,08137,1.30073968408393,103.84100500816844,Orchard Plaza,https://busrouter.sg/#/stops/08137,1
08138,08138,1.3004785730821,103.84184700607595,Concorde Hotel S'pore,https://busrouter.sg/#/stops/08138,1
09011,09011,1.30211335092372,103.83431672376756,Opp Ngee Ann City,https://busrouter.sg/#/stops/09011,1
09022,09022,1.30252834773643,103.83239784275958,Bef Orchard Stn Exit B,https://busrouter.sg/#/stops/09022,1
09023,09023,1.30323727330942,103.83254180023424,Opp Orchard Stn/ION,https://busrouter.sg/#/stops/09023,1
09037,09037,1.3023400420296,103.83701253388183,Opp Mandarin Orchard,https://busrouter.sg/#/stops/09037,1
09038,09038,1.30154262450563,103.83852481842337,Opp Somerset Stn,https://busrouter.sg/#/stops/09038,1
09047,09047,1.30446065207443,103.83294467208566,Orchard Stn/Tang Plaza,https://busrouter.sg/#/stops/09047,1
09048,09048,1.30386684425114,103.83413070051408,Orchard Stn/Lucky Plaza,https://busrouter.sg/#/stops/09048,1
09059,09059,1.30044251755834,103.83623804216019,Natl Youth Council,https://busrouter.sg/#/stops/09059,1
09111,09111,1.30453752623147,103.82914529614989,Opp Four Seasons Hotel,https://busrouter.sg/#/stops/09111,1
09121,09121,1.30397379238249,103.82699645124522,Bef Tomlinson Rd,https://busrouter.sg/#/stops/09121,1
09131,09131,1.30391999998489,103.82333805603095,Grange Residences,https://busrouter.sg/#/stops/09131,1
09139,09139,1.30419941874773,103.82354787581355,Aft Cuscaden Rd,https://busrouter.sg/#/stops/09139,1
09141,09141,1.30543500002797,103.82177666702269,British Council,https://busrouter.sg/#/stops/09141,1
09149,09149,1.30608981381948,103.8212215023314,Opp British Council,https://busrouter.sg/#/stops/09149,1
09159,09159,1.30602637557418,103.82568042620605,Aft Tomlinson Rd,https://busrouter.sg/#/stops/09159,1
09169,09169,1.3070135326348,103.82835507326037,Delfi Orchard,https://busrouter.sg/#/stops/09169,1
09179,09179,1.30587966240898,103.83049004618626,Royal Thai Embassy,https://busrouter.sg/#/stops/09179,1
09191,09191,1.30488653118311,103.82549755834486,The Regent S'pore,https://busrouter.sg/#/stops/09191,1
09212,09212,1.30702238421536,103.83265522662566,Royal Plaza On Scotts,https://busrouter.sg/#/stops/09212,1
09213,09213,1.30783805600034,103.83305083303023,Thong Teck Bldg,https://busrouter.sg/#/stops/09213,1
09219,09219,1.30731999685228,103.83316088291699,Far East Plaza,https://busrouter.sg/#/stops/09219,1
10009,10009,1.28210155945393,103.81722480263163,Bt Merah Int,https://busrouter.sg/#/stops/10009,1
10011,10011,1.2777380589964,103.83749709165197,BEF NEIL RD,https://busrouter.sg/#/stops/10011,1
10017,10017,1.27832046633393,103.83762574759974,Aft Hosp Dr,https://busrouter.sg/#/stops/10017,1
10018,10018,1.27900819665099,103.83860360621959,Outram Pk Stn Exit F/SGH,https://busrouter.sg/#/stops/10018,1
10021,10021,1.27744837946643,103.83838894560753,Blk 3,https://busrouter.sg/#/stops/10021,1
10041,10041,1.27605834770353,103.83519065305671,BEF KAMPONG BAHRU TER,https://busrouter.sg/#/stops/10041,1
10049,10049,1.27623302424393,103.83483786772155,OPP KAMPONG BAHRU TER,https://busrouter.sg/#/stops/10049,1
10051,10051,1.2774116353284,103.83214410914843,Blk 149,https://busrouter.sg/#/stops/10051,1
10059,10059,1.27739664167497,103.83275178077875,Opp Blk 149,https://busrouter.sg/#/stops/10059,1
10061,10061,1.27860472196885,103.82948638898173,Blk 140,https://busrouter.sg/#/stops/10061,1
10069,10069,1.27855472196877,103.83008250001669,Opp Blk 140,https://busrouter.sg/#/stops/10069,1
10071,10071,1.28045309423663,103.82638920754815,Blk 111,https://busrouter.sg/#/stops/10071,1
10079,10079,1.2803950142786,103.82708906887606,Blk 201,https://busrouter.sg/#/stops/10079,1
10081,10081,1.2822783541702,103.82241744338572,Opp Blk 120,https://busrouter.sg/#/stops/10081,1
10089,10089,1.28292332245689,103.82165660905856,Blk 119,https://busrouter.sg/#/stops/10089,1
10091,10091,1.28394108576437,103.81783962251122,Bt Merah Town Ctr,https://busrouter.sg/#/stops/10091,1
10099,10099,1.28420923932422,103.81765723225827,Opp Bt Merah Town Ctr,https://busrouter.sg/#/stops/10099,1
10101,10101,1.28506195168861,103.8137833011436,OPP BT MERAH SEC SCH,https://busrouter.sg/#/stops/10101,1
10109,10109,1.28535315729277,103.81370529674271,BT MERAH SEC SCH,https://busrouter.sg/#/stops/10109,1
10111,10111,1.28592835098556,103.80935410958449,Opp Blk 28,https://busrouter.sg/#/stops/10111,1
10119,10119,1.28598009010704,103.81122515087834,Opp Pacific Tech Ctr,https://busrouter.sg/#/stops/10119,1
10121,10121,1.28259924598805,103.82890541983913,Blk 126 CP,https://busrouter.sg/#/stops/10121,1
10129,10129,1.28231999999009,103.8285719444802,Blk 121,https://busrouter.sg/#/stops/10129,1
10131,10131,1.28619141382394,103.80686549059318,Opp Blk 2,https://busrouter.sg/#/stops/10131,1
10139,10139,1.28635135443034,103.8081000223439,Blk 1,https://busrouter.sg/#/stops/10139,1
10141,10141,1.28583847140468,103.83238179897589,Blk 18,https://busrouter.sg/#/stops/10141,1
10149,10149,1.28606797463712,103.83283384311112,Blk 1,https://busrouter.sg/#/stops/10149,1
10151,10151,1.28572048365401,103.8285292287095,Ctrl Green Condo,https://busrouter.sg/#/stops/10151,1
10161,10161,1.28593135445772,103.82668969231534,Opp Tiong Bahru Stn,https://busrouter.sg/#/stops/10161,1
10169,10169,1.28599961406266,103.82748123930962,Tiong Bahru Stn,https://busrouter.sg/#/stops/10169,1
10171,10171,1.28736808047078,103.82346004890803,Opp Tiong Bahru Pk,https://busrouter.sg/#/stops/10171,1
10179,10179,1.28722333302937,103.82395833301354,Tiong Bahru Pk,https://busrouter.sg/#/stops/10179,1
10181,10181,1.28850399420484,103.82109741719866,BEF AR-RABITAH MQUE,https://busrouter.sg/#/stops/10181,1
10189,10189,1.28858805222806,103.82183192865197,Blk 104A CP,https://busrouter.sg/#/stops/10189,1
10191,10191,1.28860026020096,103.81903121724014,Blk 78,https://busrouter.sg/#/stops/10191,1
10199,10199,1.28875723330649,103.81936618662205,Delta Swim Cplx,https://busrouter.sg/#/stops/10199,1
10201,10201,1.28928144532567,103.81662854691157,Opp Redhill Stn,https://busrouter.sg/#/stops/10201,1
10209,10209,1.28954631749853,103.81672885450702,Redhill Stn,https://busrouter.sg/#/stops/10209,1
10211,10211,1.29075499997303,103.81144166700754,Porsche Ctr S'pore,https://busrouter.sg/#/stops/10211,1
10219,10219,1.29089526651849,103.81191424883255,Opp Motor Image,https://busrouter.sg/#/stops/10219,1
10221,10221,1.29032906602668,103.83111793441608,Ganges Ctr,https://busrouter.sg/#/stops/10221,1
10229,10229,1.29052137840164,103.83178189529583,Opp Harvest Mansions,https://busrouter.sg/#/stops/10229,1
10231,10231,1.29041850946952,103.82788100149519,Blk 51 CP,https://busrouter.sg/#/stops/10231,1
10239,10239,1.29060688839488,103.82865297447873,Blk 79,https://busrouter.sg/#/stops/10239,1
10241,10241,1.2906166672167,103.82362326803131,Gan Eng Seng Sec Sch,https://busrouter.sg/#/stops/10241,1
10249,10249,1.29088138899671,103.82407777797806,Opp Gan Eng Seng Sec Sch,https://busrouter.sg/#/stops/10249,1
10261,10261,1.29090335842692,103.82047232884216,Delta Sports Hall,https://busrouter.sg/#/stops/10261,1
10269,10269,1.29125331927458,103.82057583280772,Opp Delta Sports Hall,https://busrouter.sg/#/stops/10269,1
10271,10271,1.29115999997607,103.81757666701353,Opp Tanglin View,https://busrouter.sg/#/stops/10271,1
10279,10279,1.29151373164978,103.81757660887743,Tanglin View,https://busrouter.sg/#/stops/10279,1
10281,10281,1.29153833298318,103.81445166697797,SIS Bldg,https://busrouter.sg/#/stops/10281,1
10289,10289,1.2918699745378,103.81440639448375,Opp SIS Bldg,https://busrouter.sg/#/stops/10289,1
10291,10291,1.29215855273858,103.81065866068086,Bef Dawson Rd,https://busrouter.sg/#/stops/10291,1
10299,10299,1.29233498466278,103.81146486767658,Aft Dawson Rd,https://busrouter.sg/#/stops/10299,1
10321,10321,1.29428332949691,103.81587839882768,Aft Margaret Dr,https://busrouter.sg/#/stops/10321,1
10329,10329,1.29364671283262,103.81597460107542,Crescent Girls' Sch,https://busrouter.sg/#/stops/10329,1
10331,10331,1.28136306628839,103.81834423228645,Bef Bt Merah Ctrl,https://busrouter.sg/#/stops/10331,1
10339,10339,1.28115835063292,103.81857250844851,Aft Bt Merah Ctrl,https://busrouter.sg/#/stops/10339,1
10341,10341,1.28484639603431,103.82059301467888,Opp Blk 116,https://busrouter.sg/#/stops/10341,1
10349,10349,1.2849833405097,103.82104149555396,Blk 116,https://busrouter.sg/#/stops/10349,1
10351,10351,1.28675501760897,103.82204990181914,Bef Tiong Bahru Rd,https://busrouter.sg/#/stops/10351,1
10359,10359,1.28723833324362,103.82259298997768,Aft Tiong Bahru Rd,https://busrouter.sg/#/stops/10359,1
10361,10361,1.28038092060065,103.82353025808791,Cendex Ctr,https://busrouter.sg/#/stops/10361,1
10369,10369,1.28037471151153,103.82387343933006,Opp Cendex Ctr,https://busrouter.sg/#/stops/10369,1
10371,10371,1.28365072319387,103.824502653383,Blk 129,https://busrouter.sg/#/stops/10371,1
10379,10379,1.28373603376667,103.82489520929732,Blk 25B,https://busrouter.sg/#/stops/10379,1
10381,10381,1.28906972186602,103.82559411728036,Opp Blk 48,https://busrouter.sg/#/stops/10381,1
10389,10389,1.28875832991208,103.82573455047122,Blk 48,https://busrouter.sg/#/stops/10389,1
10391,10391,1.27627105343758,103.8312563936613,Opp Melati Blk 2,https://busrouter.sg/#/stops/10391,1
10399,10399,1.27588166292683,103.83019454205221,Melati Blk 2,https://busrouter.sg/#/stops/10399,1
10401,10401,1.28816729863,103.81167850401884,Shriro Hse,https://busrouter.sg/#/stops/10401,1
10409,10409,1.28788221830638,103.81099317775703,Blk 50,https://busrouter.sg/#/stops/10409,1
10411,10411,1.28912979528004,103.81280840030111,Opp Blk 53,https://busrouter.sg/#/stops/10411,1
10419,10419,1.28842024220748,103.81257549749508,Blk 52,https://busrouter.sg/#/stops/10419,1
10421,10421,1.2889706156154,103.81503540991777,Blk 63B,https://busrouter.sg/#/stops/10421,1
10429,10429,1.2892779060127,103.81404805422201,Blk 54,https://busrouter.sg/#/stops/10429,1
10431,10431,1.28708384358883,103.81399869917512,ENABLING VILLAGE,https://busrouter.sg/#/stops/10431,1
10439,10439,1.28747956947939,103.81418936580334,OPP ENABLING VILLAGE,https://busrouter.sg/#/stops/10439,1
10441,10441,1.28656898930199,103.8116061687213,Opp Blk 44,https://busrouter.sg/#/stops/10441,1
10449,10449,1.28666552495266,103.81195378046979,Blk 44,https://busrouter.sg/#/stops/10449,1
10451,10451,1.28762380319765,103.8172559639682,Opp Blk 71,https://busrouter.sg/#/stops/10451,1
10459,10459,1.28754723360397,103.81639920301684,Blk 72,https://busrouter.sg/#/stops/10459,1
10461,10461,1.29680597432594,103.81169140516062,Aft Margaret Dr,https://busrouter.sg/#/stops/10461,1
10469,10469,1.29668400003303,103.81216918970023,Bef Margaret Dr,https://busrouter.sg/#/stops/10469,1
10471,10471,1.29679993078344,103.81468220659576,Bef Tanglin Rd,https://busrouter.sg/#/stops/10471,1
10479,10479,1.29668100002552,103.81547381025995,Aft Tanglin Rd,https://busrouter.sg/#/stops/10479,1
10481,10481,1.28784195484767,103.81797160113335,Opp Blk 73,https://busrouter.sg/#/stops/10481,1
10489,10489,1.28811638897142,103.81778388900163,Blk 73,https://busrouter.sg/#/stops/10489,1
10499,10499,1.27585400417691,103.83401000002084,KAMPONG BAHRU TER,https://busrouter.sg/#/stops/10499,1
10501,10501,1.28105845355429,103.82528065411316,Blk 104,https://busrouter.sg/#/stops/10501,1
10519,10519,1.291728,103.826122,Blk 4,https://busrouter.sg/#/stops/10519,1
10599,10599,1.28883435010664,103.80924997344987,Opp Blk 36,https://busrouter.sg/#/stops/10599,1
10651,10651,1.28329993019059,103.81547665017668,Blk 161,https://busrouter.sg/#/stops/10651,1
10659,10659,1.28362333298689,103.81472833301791,Blk 1003,https://busrouter.sg/#/stops/10659,1
11009,11009,1.3110673548964,103.78932237623975,Ghim Moh Ter,https://busrouter.sg/#/stops/11009,1
11019,11019,1.28679632523156,103.80565677295323,Pk Hotel Alexandra,https://busrouter.sg/#/stops/11019,1
11021,11021,1.28941805603102,103.80228694398484,Aft Queenstown NPC HQ,https://busrouter.sg/#/stops/11021,1
11029,11029,1.29013472201419,103.80202111098815,Blk 166,https://busrouter.sg/#/stops/11029,1
11031,11031,1.29119666696879,103.80045500000118,Opp Queen's Cl,https://busrouter.sg/#/stops/11031,1
11039,11039,1.29245762862665,103.79998683928974,Blk 19,https://busrouter.sg/#/stops/11039,1
11041,11041,1.29624499998226,103.79952333299494,Aft C'wealth Dr,https://busrouter.sg/#/stops/11041,1
11049,11049,1.2954609366563,103.79952549937242,Opp Blessed Sacrament Ch,https://busrouter.sg/#/stops/11049,1
11051,11051,1.29872166703909,103.8002979755481,Opp Queenstown Polyclinic,https://busrouter.sg/#/stops/11051,1
11059,11059,1.29882892782979,103.80097389222824,Queenstown Polyclinic,https://busrouter.sg/#/stops/11059,1
11061,11061,1.30265777802206,103.80118694402536,Opp Queensway Sec Sch,https://busrouter.sg/#/stops/11061,1
11069,11069,1.30236853162324,103.80161762237655,Queensway Sec Sch,https://busrouter.sg/#/stops/11069,1
11071,11071,1.30621305601609,103.80170944396954,Blk 97,https://busrouter.sg/#/stops/11071,1
11079,11079,1.305441389003,103.80185250000659,Opp Blk 95,https://busrouter.sg/#/stops/11079,1
11081,11081,1.30851972202313,103.80258027799627,Viz Holland,https://busrouter.sg/#/stops/11081,1
11089,11089,1.30946135492693,103.80334087354639,Opp Holland Hill Lodge,https://busrouter.sg/#/stops/11089,1
11091,11091,1.31219444050072,103.80367378215983,Tulip Gdn,https://busrouter.sg/#/stops/11091,1
11099,11099,1.31305333300118,103.80437666697586,Opp Tulip Gdn,https://busrouter.sg/#/stops/11099,1
11101,11101,1.31614971080385,103.80596012189226,Farrer Rd Mkt,https://busrouter.sg/#/stops/11101,1
11109,11109,1.31552472199926,103.80574305602846,Spanish Village,https://busrouter.sg/#/stops/11109,1
11111,11111,1.31780157259006,103.80771866952543,Farrer Rd Stn Exit B,https://busrouter.sg/#/stops/11111,1
11119,11119,1.31747833490912,103.80785606728587,Farrer Rd Stn Exit A,https://busrouter.sg/#/stops/11119,1
11131,11131,1.2928849988829,103.80706694417339,Queens Condo,https://busrouter.sg/#/stops/11131,1
11139,11139,1.2931986108138,103.80744694841283,Blk 53A CP,https://busrouter.sg/#/stops/11139,1
11141,11141,1.29463705145492,103.80582510668431,Queenstown Stn Exit A/D,https://busrouter.sg/#/stops/11141,1
11149,11149,1.29506407111991,103.80596280094791,Queenstown Stn Exit B/C,https://busrouter.sg/#/stops/11149,1
11151,11151,1.29863585845076,103.80247592925552,Blk 42,https://busrouter.sg/#/stops/11151,1
11159,11159,1.29800440816386,103.80362656855579,Aft Ch Of Our Saviour,https://busrouter.sg/#/stops/11159,1
11161,11161,1.30213305598263,103.79839083302141,C'Wealth Stn Exit A/D,https://busrouter.sg/#/stops/11161,1
11169,11169,1.30270500001823,103.79838166697326,C'Wealth Stn Exit B/C,https://busrouter.sg/#/stops/11169,1
11171,11171,1.30535666699303,103.79479722196947,Opp Blk 7B,https://busrouter.sg/#/stops/11171,1
11179,11179,1.30627521395682,103.79427940117534,Blk 8,https://busrouter.sg/#/stops/11179,1
11181,11181,1.30722333300814,103.79227638896938,Opp Blk 43,https://busrouter.sg/#/stops/11181,1
11189,11189,1.30740138898924,103.79254222202354,Blk 43,https://busrouter.sg/#/stops/11189,1
11191,11191,1.30801640815091,103.7883731546267,The Star Vista,https://busrouter.sg/#/stops/11191,1
11199,11199,1.30837970735444,103.78843145303215,Blk 15,https://busrouter.sg/#/stops/11199,1
11201,11201,1.30692642897557,103.81186453577433,CSC Dempsey Clubhse,https://busrouter.sg/#/stops/11201,1
11209,11209,1.30817280849852,103.81038349817638,Opp Peirce Rd,https://busrouter.sg/#/stops/11209,1
11211,11211,1.30838779885113,103.80939522851014,Aft Peirce Rd,https://busrouter.sg/#/stops/11211,1
11219,11219,1.30988506093033,103.80716407830104,Great Eastern Mansions,https://busrouter.sg/#/stops/11219,1
11221,11221,1.31002225322358,103.80544413357042,Lien Twrs,https://busrouter.sg/#/stops/11221,1
11229,11229,1.31060065879064,103.80522542227166,Sommerville Pk,https://busrouter.sg/#/stops/11229,1
11231,11231,1.31115316310297,103.80119919777994,Aft Estoril Mansions,https://busrouter.sg/#/stops/11231,1
11239,11239,1.31152857401616,103.80165517330278,Fairlodge,https://busrouter.sg/#/stops/11239,1
11259,11259,1.31119887945564,103.79274002213417,Opp Blk 21,https://busrouter.sg/#/stops/11259,1
11261,11261,1.31223168432152,103.79444621838488,Holland Village,https://busrouter.sg/#/stops/11261,1
11269,11269,1.31256112590195,103.79453796697418,Opp Holland Village,https://busrouter.sg/#/stops/11269,1
11271,11271,1.31473444398294,103.79008416699845,Aft East Sussex Lane,https://busrouter.sg/#/stops/11271,1
11279,11279,1.31466878886978,103.79069259768109,Aft Coronation Rd West,https://busrouter.sg/#/stops/11279,1
11281,11281,1.31622694399746,103.78852194399074,Aft Tan Boon Chong Ave,https://busrouter.sg/#/stops/11281,1
11289,11289,1.31618891387774,103.78904342517946,Opp Tan Boon Chong Ave,https://busrouter.sg/#/stops/11289,1
11291,11291,1.31792777802094,103.78592333300938,Cold Storage Jelita,https://busrouter.sg/#/stops/11291,1
11299,11299,1.31826975603165,103.78558843680226,Opp Cold Storage Jelita,https://busrouter.sg/#/stops/11299,1
11301,11301,1.31803972093441,103.78790067716272,Hse No. 578,https://busrouter.sg/#/stops/11301,1
11309,11309,1.31862443850443,103.78842993526158,Hse No. 589,https://busrouter.sg/#/stops/11309,1
11311,11311,1.31989638898836,103.78918694402276,Hse No. 532,https://busrouter.sg/#/stops/11311,1
11319,11319,1.3203063798654,103.78959970624805,Opp Hse No. 516,https://busrouter.sg/#/stops/11319,1
11321,11321,1.32123138902898,103.79010361098513,Opp Regent Villa,https://busrouter.sg/#/stops/11321,1
11329,11329,1.32236139685053,103.7909809400838,Regent Villa,https://busrouter.sg/#/stops/11329,1
11331,11331,1.32320918827361,103.79144668575621,Opp Dynasty Gdn II,https://busrouter.sg/#/stops/11331,1
11339,11339,1.32398638897489,103.79204722198944,Dynasty Lodge,https://busrouter.sg/#/stops/11339,1
11341,11341,1.32551506183496,103.79282790894261,Garlick Ville,https://busrouter.sg/#/stops/11341,1
11349,11349,1.32566611098306,103.79307388903305,Opp Garlick Ville,https://busrouter.sg/#/stops/11349,1
11351,11351,1.30934571218561,103.78945112775229,Blk 13,https://busrouter.sg/#/stops/11351,1
11359,11359,1.30931022636473,103.78968608347117,Opp Blk 13,https://busrouter.sg/#/stops/11359,1
11361,11361,1.30649698638726,103.79058123542397,Buona Vista Stn Exit C,https://busrouter.sg/#/stops/11361,1
11369,11369,1.3063259638605,103.79084827741467,Buona Vista Stn Exit D,https://busrouter.sg/#/stops/11369,1
11379,11379,1.30917002463976,103.79236323128613,Buona Vista Ter,https://busrouter.sg/#/stops/11379,1
11381,11381,1.30841137865065,103.79328294102335,Blk 10A,https://busrouter.sg/#/stops/11381,1
11389,11389,1.30906501014268,103.7929321687807,Blk 46,https://busrouter.sg/#/stops/11389,1
11401,11401,1.30906722197973,103.79507444402137,Holland V Stn/Blk12,https://busrouter.sg/#/stops/11401,1
11409,11409,1.3076441670056,103.79432583301961,Blk 9,https://busrouter.sg/#/stops/11409,1
11419,11419,1.31102981378085,103.79604399202725,Holland V Stn Exit A,https://busrouter.sg/#/stops/11419,1
11429,11429,1.30454000002017,103.7983633329984,Opp Blk 115B,https://busrouter.sg/#/stops/11429,1
11439,11439,1.30606472198412,103.80029777801455,Blk 92,https://busrouter.sg/#/stops/11439,1
11441,11441,1.29780416697573,103.79754055603178,Blk 58,https://busrouter.sg/#/stops/11441,1
11449,11449,1.29840527801842,103.79760333302292,Blk 37B,https://busrouter.sg/#/stops/11449,1
11451,11451,1.30034972200468,103.79707277801477,Blk 72,https://busrouter.sg/#/stops/11451,1
11459,11459,1.30097055597804,103.7968519439962,Blk 50,https://busrouter.sg/#/stops/11459,1
11469,11469,1.30113503392421,103.80188584326886,Queensway Sec Sch,https://busrouter.sg/#/stops/11469,1
11471,11471,1.29951892595663,103.80315156606572,Opp The Fisherman Ch,https://busrouter.sg/#/stops/11471,1
11481,11481,1.29811518922625,103.8060054035445,Queenstown Lib,https://busrouter.sg/#/stops/11481,1
11489,11489,1.298817,103.804395,Opp Queenstown Lib,https://busrouter.sg/#/stops/11489,1
11491,11491,1.29710202847016,103.8076364994003,Opp Queenstown Pr Sch,https://busrouter.sg/#/stops/11491,1
11499,11499,1.29685053610951,103.80788663334461,Queenstown Pr Sch,https://busrouter.sg/#/stops/11499,1
11511,11511,1.2859468736223,103.80251884462385,Alexandra Hosp,https://busrouter.sg/#/stops/11511,1
11519,11519,1.28665742231261,103.80334129425303,Opp Queensway Shop Ctr,https://busrouter.sg/#/stops/11519,1
11521,11521,1.2885710102662,103.80543003047167,Anchorpoint,https://busrouter.sg/#/stops/11521,1
11529,11529,1.28903120647732,103.8060909305284,Bef IKEA Ind Bldg,https://busrouter.sg/#/stops/11529,1
11531,11531,1.29108833302538,103.80753083302794,Opp Lea Hin Hardware Fty,https://busrouter.sg/#/stops/11531,1
11539,11539,1.29117049549107,103.80786180498694,Lea Hin Hardware Fty,https://busrouter.sg/#/stops/11539,1
11541,11541,1.29235984013148,103.80578500139798,Opp Queens,https://busrouter.sg/#/stops/11541,1
11551,11551,1.29126703051517,103.8040959835246,Tiong Ghee Tp,https://busrouter.sg/#/stops/11551,1
11561,11561,1.29107396045212,103.80247592924283,Blk 166,https://busrouter.sg/#/stops/11561,1
11579,11579,1.29256489056942,103.80303321252237,Blk 158,https://busrouter.sg/#/stops/11579,1
11589,11589,1.292991881006,103.80400524995773,Blk 157,https://busrouter.sg/#/stops/11589,1
11599,11599,1.29420805600708,103.80314888900556,Blk 153,https://busrouter.sg/#/stops/11599,1
11609,11609,1.29188972202709,103.80212194401808,Blk 163,https://busrouter.sg/#/stops/11609,1
12021,12021,1.31907638897016,103.78243055601493,Bef Moonbeam Wk,https://busrouter.sg/#/stops/12021,1
12029,12029,1.31958369390988,103.7824392109149,Opp Moonbeam Wk,https://busrouter.sg/#/stops/12029,1
12031,12031,1.3208008510991,103.7796285552172,Pandan Valley Condo,https://busrouter.sg/#/stops/12031,1
12039,12039,1.32104526183447,103.78018998386835,Opp Pandan Valley Condo,https://busrouter.sg/#/stops/12039,1
12041,12041,1.32049172685895,103.77653442120544,Aft Pandan Valley,https://busrouter.sg/#/stops/12041,1
12049,12049,1.32091131971837,103.77655888991401,Opp Pandan Valley,https://busrouter.sg/#/stops/12049,1
12051,12051,1.3204289505949,103.7750613105408,Pine Gr Condo,https://busrouter.sg/#/stops/12051,1
12059,12059,1.32072731097778,103.77515897833835,Opp Pine Gr Condo,https://busrouter.sg/#/stops/12059,1
12061,12061,1.32178500189496,103.77087339859139,Blk 109,https://busrouter.sg/#/stops/12061,1
12069,12069,1.321433056,103.7710419,Opp Blk 109A,https://busrouter.sg/#/stops/12069,1
12071,12071,1.32402249998323,103.77219388896603,Blk 116,https://busrouter.sg/#/stops/12071,1
12079,12079,1.32383187575187,103.77263094375739,Opp Blk 116,https://busrouter.sg/#/stops/12079,1
12081,12081,1.326468056,103.77543,Maju Camp,https://busrouter.sg/#/stops/12081,1
12089,12089,1.326261111,103.7757089,Opp Maju Camp,https://busrouter.sg/#/stops/12089,1
12091,12091,1.32918315486756,103.7771471166854,SIM HQ,https://busrouter.sg/#/stops/12091,1
12099,12099,1.327838056,103.7767036,Opp SIM HQ,https://busrouter.sg/#/stops/12099,1
12101,12101,1.33243896358504,103.77768506316727,Ngee Ann Poly,https://busrouter.sg/#/stops/12101,1
12109,12109,1.330819444,103.7780086,Opp Ngee Ann Poly,https://busrouter.sg/#/stops/12109,1
12111,12111,1.3191179107649,103.77222980786665,Bef Clementi Rd,https://busrouter.sg/#/stops/12111,1
12119,12119,1.31964598192789,103.77279266281438,Police KINS Trg Camp,https://busrouter.sg/#/stops/12119,1
12121,12121,1.31164833301814,103.7871516670319,Blk 7,https://busrouter.sg/#/stops/12121,1
12129,12129,1.31182111096862,103.78732611099163,Blk 3,https://busrouter.sg/#/stops/12129,1
12131,12131,1.3141594439742,103.785061666981,Aft Grove Ave,https://busrouter.sg/#/stops/12131,1
12139,12139,1.31453185933289,103.78504157068625,Aft Mt Sinai Lane,https://busrouter.sg/#/stops/12139,1
12141,12141,1.31574389841394,103.78239154819083,Opp Henry Pk,https://busrouter.sg/#/stops/12141,1
12149,12149,1.31576900455367,103.78266099158458,Henry Pk,https://busrouter.sg/#/stops/12149,1
12151,12151,1.31865064467378,103.78127574919664,Bef Moonbeam Terr,https://busrouter.sg/#/stops/12151,1
12169,12169,1.31916549240365,103.77724170687915,Pandan Valley,https://busrouter.sg/#/stops/12169,1
12179,12179,1.31679504687757,103.7769949436126,Montview,https://busrouter.sg/#/stops/12179,1
12189,12189,1.31642693680141,103.78022402243116,Bef Mt Sinai Dr,https://busrouter.sg/#/stops/12189,1
12199,12199,1.31547998901343,103.77820622498255,Opp Village Twr,https://busrouter.sg/#/stops/12199,1
12201,12201,1.32670826856501,103.76399509585458,Logishub @ Clementi,https://busrouter.sg/#/stops/12201,1
12209,12209,1.32653202760922,103.76429968220569,Opp Logishub @ Clementi,https://busrouter.sg/#/stops/12209,1
12211,12211,1.31721336095462,103.78070712088581,Bef Mt Sinai Wk,https://busrouter.sg/#/stops/12211,1
13011,13011,1.306516,103.819225,Opp S'pore Botanic Gdns,https://busrouter.sg/#/stops/13011,1
13019,13019,1.3067380217198,103.82013079894885,S'pore Botanic Gdns,https://busrouter.sg/#/stops/13019,1
13021,13021,1.30633972996805,103.81430670816292,Aft Min Of Foreign Affairs,https://busrouter.sg/#/stops/13021,1
13029,13029,1.30671783282361,103.8145185880206,Bef Tyersall Ave,https://busrouter.sg/#/stops/13029,1
13031,13031,1.29912972200223,103.81707388901162,Opp Chatsworth Rd,https://busrouter.sg/#/stops/13031,1
13039,13039,1.29981572699945,103.81744265557978,Bef Chatsworth Rd,https://busrouter.sg/#/stops/13039,1
13041,13041,1.30242834318416,103.81967634723284,Aft Rochalie Dr,https://busrouter.sg/#/stops/13041,1
13049,13049,1.30261671321463,103.82045069624506,Bef Rochalie Dr,https://busrouter.sg/#/stops/13049,1
13051,13051,1.29334305906356,103.8263656209055,Opp Valley Pt,https://busrouter.sg/#/stops/13051,1
13059,13059,1.29328273601932,103.82663492676832,Valley Pt,https://busrouter.sg/#/stops/13059,1
13062,13062,1.29476674399435,103.82853268161283,STELLAR RV,https://busrouter.sg/#/stops/13062,1
13063,13063,1.29534692836828,103.82964309110659,RV SUITES,https://busrouter.sg/#/stops/13063,1
13069,13069,1.29488000002792,103.82880805602646,RV RESIDENCES,https://busrouter.sg/#/stops/13069,1
13071,13071,1.29636199316259,103.8322512944371,Riva Lodge,https://busrouter.sg/#/stops/13071,1
13079,13079,1.29612213279141,103.83229211134126,The Cosmopolitan,https://busrouter.sg/#/stops/13079,1
13081,13081,1.2959113890106,103.83624277798825,St. Thomas Wk,https://busrouter.sg/#/stops/13081,1
13089,13089,1.29575111096804,103.83604111103381,Opp St. Thomas Wk,https://busrouter.sg/#/stops/13089,1
13091,13091,1.29593138900491,103.83937805601917,AFT KIM YAM RD,https://busrouter.sg/#/stops/13091,1
13099,13099,1.29578024244395,103.83961272081199,BEF KIM YAM RD,https://busrouter.sg/#/stops/13099,1
13101,13101,1.29414162678811,103.84231209757696,Opp Mohd Sultan Rd,https://busrouter.sg/#/stops/13101,1
13109,13109,1.29350944398488,103.84272416702719,UE Sq/Bef Mohd Sultan Rd,https://busrouter.sg/#/stops/13109,1
13119,13119,1.29362677394379,103.83283853530904,Opp Great World City,https://busrouter.sg/#/stops/13119,1
13121,13121,1.29409221679274,103.8308377640795,Opp Great World City,https://busrouter.sg/#/stops/13121,1
13139,13139,1.2950426189642,103.83205533028763,The Trillium,https://busrouter.sg/#/stops/13139,1
13141,13141,1.29763682834545,103.82997986347917,Aft Zion Full Gospel Ch,https://busrouter.sg/#/stops/13141,1
13159,13159,1.29796011528522,103.83053183555204,Bef Zion Full Gospel Ch,https://busrouter.sg/#/stops/13159,1
13169,13169,1.29910305180416,103.82839289158527,Grange 80 Condo,https://busrouter.sg/#/stops/13169,1
13171,13171,1.29906809120339,103.82650703485064,Gramercy Pk,https://busrouter.sg/#/stops/13171,1
13179,13179,1.29925749997453,103.82665250000115,Cliveden At Grange,https://busrouter.sg/#/stops/13179,1
13181,13181,1.30023223661153,103.82403473005562,Aft One Tree Hill,https://busrouter.sg/#/stops/13181,1
13189,13189,1.30038166697497,103.82414749997376,Bef One Tree Hill,https://busrouter.sg/#/stops/13189,1
13191,13191,1.302461,103.8297819,Bef Orchard Blvd,https://busrouter.sg/#/stops/13191,1
13199,13199,1.302127,103.829875,Aft Orchard Blvd,https://busrouter.sg/#/stops/13199,1
13201,13201,1.30453622259471,103.82209559895128,British High Comm,https://busrouter.sg/#/stops/13201,1
13209,13209,1.3040310710651,103.82205605505206,Opp British High Comm,https://busrouter.sg/#/stops/13209,1
13211,13211,1.29241699362559,103.841095990069,Aft Unity St,https://busrouter.sg/#/stops/13211,1
14009,14009,1.26703502614245,103.81901469907409,HarbourFront Int,https://busrouter.sg/#/stops/14009,1
14011,14011,1.26795444401606,103.8255261109799,Bef Mt Faber Lodge,https://busrouter.sg/#/stops/14011,1
14019,14019,1.2684889249437,103.82571717446542,Opp Mt Faber Lodge,https://busrouter.sg/#/stops/14019,1
14021,14021,1.27132972198996,103.82478361101728,The Pearl @ Mt Faber,https://busrouter.sg/#/stops/14021,1
14029,14029,1.27247333301883,103.82418777803016,Blk 105,https://busrouter.sg/#/stops/14029,1
14031,14031,1.27624277802151,103.82306027800865,St. Theresa's Convent,https://busrouter.sg/#/stops/14031,1
14039,14039,1.27663637861466,103.82345826768822,Opp St. Theresa's Convent,https://busrouter.sg/#/stops/14039,1
14041,14041,1.2732727805917,103.81247079301698,Blk 54,https://busrouter.sg/#/stops/14041,1
14049,14049,1.27324166755337,103.81304231999674,Opp Blk 55,https://busrouter.sg/#/stops/14049,1
14051,14051,1.27581500000367,103.81507555599188,Aft Telok Blangah Hts,https://busrouter.sg/#/stops/14051,1
14059,14059,1.27537485139506,103.81514365492288,Bef Telok Blangah Hts,https://busrouter.sg/#/stops/14059,1
14061,14061,1.27231269789239,103.83862035734883,Opp Former Railway Stn,https://busrouter.sg/#/stops/14061,1
14069,14069,1.272538056,103.8364069,Former Railway Stn,https://busrouter.sg/#/stops/14069,1
14071,14071,1.27220342411953,103.8339025862589,Keppel Workshop,https://busrouter.sg/#/stops/14071,1
14081,14081,1.270896111,103.8308919,Tg Pagar DP Blk F5,https://busrouter.sg/#/stops/14081,1
14089,14089,1.27046005041763,103.829792773326,Opp Tg Pagar DP Blk F5,https://busrouter.sg/#/stops/14089,1
14101,14101,1.26837500002503,103.82825805600972,Opp Keppel DP Blk 517,https://busrouter.sg/#/stops/14101,1
14109,14109,1.26804601553507,103.82722490505579,Keppel DP Blk 517,https://busrouter.sg/#/stops/14109,1
14119,14119,1.26592360897281,103.8222827803663,Opp VivoCity,https://busrouter.sg/#/stops/14119,1
14121,14121,1.26591350024271,103.81925660621779,Opp HarbourFront Int,https://busrouter.sg/#/stops/14121,1
14129,14129,1.26607869101924,103.81977877391114,Harbourfront Stn Exit A,https://busrouter.sg/#/stops/14129,1
14131,14131,1.26740130257465,103.81675441150337,Caribbean at Keppel Bay,https://busrouter.sg/#/stops/14131,1
14139,14139,1.2686352773503,103.81546952380809,Bef Seah Im Rd,https://busrouter.sg/#/stops/14139,1
14141,14141,1.26552421466644,103.82211326846237,HarbourFront Stn/Vivocity,https://busrouter.sg/#/stops/14141,1
14151,14151,1.26964765905364,103.8129359412343,Opp Chr Community Chapel,https://busrouter.sg/#/stops/14151,1
14159,14159,1.26994046445496,103.81315419081787,Bef Chr Community Chapel,https://busrouter.sg/#/stops/14159,1
14161,14161,1.27075866533548,103.81009913005327,Telok Blangah Stn,https://busrouter.sg/#/stops/14161,1
14169,14169,1.27118550385957,103.80941810434497,Opp Telok Blangah Stn,https://busrouter.sg/#/stops/14169,1
14171,14171,1.27145959833005,103.80654857059398,Opp Yeo's Bldg,https://busrouter.sg/#/stops/14171,1
14179,14179,1.27188454577735,103.80630000533797,Yeo's Bldg,https://busrouter.sg/#/stops/14179,1
14189,14189,1.27269303340787,103.80398363214624,Aft Alexandra Rd,https://busrouter.sg/#/stops/14189,1
14191,14191,1.28121833300943,103.81211444400743,Blk 105 CP,https://busrouter.sg/#/stops/14191,1
14199,14199,1.28131676735406,103.81275056370772,Blk 118,https://busrouter.sg/#/stops/14199,1
14201,14201,1.28167307267242,103.80914683892263,Blk 110,https://busrouter.sg/#/stops/14201,1
14209,14209,1.28176397706369,103.80958869712056,Aft Hewlett Packard,https://busrouter.sg/#/stops/14209,1
14211,14211,1.28161168409316,103.80521877469815,ISS Intl Sch,https://busrouter.sg/#/stops/14211,1
14219,14219,1.28218647936578,103.80684961252827,Opp Blk 114,https://busrouter.sg/#/stops/14219,1
14221,14221,1.27359332247784,103.82893371728431,Opp St. Teresa's Ch,https://busrouter.sg/#/stops/14221,1
14229,14229,1.27370670186653,103.82857888915174,St. Teresa's Ch,https://busrouter.sg/#/stops/14229,1
14231,14231,1.27100999999332,103.82667222202473,Keppel DP Blk 519,https://busrouter.sg/#/stops/14231,1
14239,14239,1.27178138152481,103.8271423936315,Opp Keppel DP Blk 519,https://busrouter.sg/#/stops/14239,1
14241,14241,1.27914353103301,103.8168725087535,Opp Blk 1,https://busrouter.sg/#/stops/14241,1
14249,14249,1.27947405747082,103.81732991211003,Blk 1,https://busrouter.sg/#/stops/14249,1
14259,14259,1.27784501068205,103.81865821941,Blk 11,https://busrouter.sg/#/stops/14259,1
14269,14269,1.27758480623244,103.81999451121168,Blk 10,https://busrouter.sg/#/stops/14269,1
14271,14271,1.27568194286532,103.81914854048932,Al-Amin Mque,https://busrouter.sg/#/stops/14271,1
14279,14279,1.27591552267791,103.81920892602811,Blk 25,https://busrouter.sg/#/stops/14279,1
14281,14281,1.27699671573899,103.81804377490617,Safra Mt Faber,https://busrouter.sg/#/stops/14281,1
14291,14291,1.27468440821038,103.82132649422054,Blk 27,https://busrouter.sg/#/stops/14291,1
14299,14299,1.27488820445716,103.82127132943862,Opp Blk 27,https://busrouter.sg/#/stops/14299,1
14309,14309,1.27128899958763,103.82302593897191,Blk 41,https://busrouter.sg/#/stops/14309,1
14319,14319,1.27340685178245,103.82071832142381,Blk 28,https://busrouter.sg/#/stops/14319,1
14329,14329,1.27434961469084,103.8094536607413,Blk 67,https://busrouter.sg/#/stops/14329,1
14331,14331,1.27694611110347,103.8110680555484,Opp Blk 70B,https://busrouter.sg/#/stops/14331,1
14339,14339,1.276660654539,103.81124504785828,Blk 70A,https://busrouter.sg/#/stops/14339,1
14341,14341,1.2759338888633,103.81347388887318,Opp Blk 59,https://busrouter.sg/#/stops/14341,1
14349,14349,1.27579029839825,103.81339813671549,Blk 59,https://busrouter.sg/#/stops/14349,1
14351,14351,1.27275000000424,103.81036111111034,Aft Blk 48,https://busrouter.sg/#/stops/14351,1
14359,14359,1.27289055599998,103.81035027797056,Blk 50,https://busrouter.sg/#/stops/14359,1
14369,14369,1.28153635758335,103.80365927155157,The Interlace,https://busrouter.sg/#/stops/14369,1
14379,14379,1.27243833303297,103.82379361102515,Blk 40,https://busrouter.sg/#/stops/14379,1
14381,14381,1.27413014152159,103.82554290547176,Blk 109,https://busrouter.sg/#/stops/14381,1
14389,14389,1.27428160509375,103.82500895193466,Opp Blk 109,https://busrouter.sg/#/stops/14389,1
14391,14391,1.27790999999895,103.80858611110148,Opp Blk 85,https://busrouter.sg/#/stops/14391,1
14399,14399,1.27763662023223,103.80858552939208,Blk 85,https://busrouter.sg/#/stops/14399,1
14471,14471,1.28201169102423,103.80664978771298,Blk 114,https://busrouter.sg/#/stops/14471,1
14489,14489,1.2721852066614,103.82170108549552,Blk 36 Mkt/FC,https://busrouter.sg/#/stops/14489,1
14491,14491,1.27278805556375,103.8079488888896,Opp Telok Blangah Mkt/FC,https://busrouter.sg/#/stops/14491,1
14499,14499,1.27291305557456,103.8078211111249,Telok Blangah Mkt/FC,https://busrouter.sg/#/stops/14499,1
14501,14501,1.27687216148362,103.80648081848618,OPP BLK 91A,https://busrouter.sg/#/stops/14501,1
14509,14509,1.275651111,103.8068061,BLK 92B,https://busrouter.sg/#/stops/14509,1
14519,14519,1.25352193438281,103.82570322127442,Resorts World Sentosa,https://busrouter.sg/#/stops/14519,1
14521,14521,1.256432,103.820911,Village Hotel,https://busrouter.sg/#/stops/14521,1
14529,14529,1.253226,103.821217,Opp Village Hotel,https://busrouter.sg/#/stops/14529,1
14539,14539,1.251427,103.818545,Beach Station Bus Terminal,https://busrouter.sg/#/stops/14539,1
15041,15041,1.274632,103.801892,Alexandra Retail Ctr,https://busrouter.sg/#/stops/15041,1
15049,15049,1.274590541032,103.80216344738955,Opp Alexandra Retail Ctr,https://busrouter.sg/#/stops/15049,1
15051,15051,1.276978,103.8023815,Alexandra Pt,https://busrouter.sg/#/stops/15051,1
15059,15059,1.27686194443878,103.80270111113056,Opp Alexandra Pt,https://busrouter.sg/#/stops/15059,1
15071,15071,1.28142472197061,103.78701416697068,Opp Lor Sarhad,https://busrouter.sg/#/stops/15071,1
15079,15079,1.28077893732919,103.78682778221345,Aft Lor Sarhad,https://busrouter.sg/#/stops/15079,1
15091,15091,1.28290732015735,103.78781105381566,Opp Natl Leadership Inst,https://busrouter.sg/#/stops/15091,1
15099,15099,1.28305620100972,103.78789349372825,Natl Leadership Inst,https://busrouter.sg/#/stops/15099,1
15101,15101,1.28617611097876,103.78562083299963,Opp LP 31,https://busrouter.sg/#/stops/15101,1
15109,15109,1.28591970870508,103.78581066082835,LP 30,https://busrouter.sg/#/stops/15109,1
15111,15111,1.28676277798099,103.78484166701072,Sci Pk 2/The Galen,https://busrouter.sg/#/stops/15111,1
15119,15119,1.28703802671813,103.78501111787651,Opp Sci Pk 2/The Galen,https://busrouter.sg/#/stops/15119,1
15121,15121,1.2889414210404,103.78373044277906,Sci Pk 2/The Gemini,https://busrouter.sg/#/stops/15121,1
15129,15129,1.28916467783169,103.78401870729115,Opp Sci Pk 2/The Gemini,https://busrouter.sg/#/stops/15129,1
15131,15131,1.29254343742409,103.78448903561744,Kent Ridge Stn,https://busrouter.sg/#/stops/15131,1
15139,15139,1.29241000003008,103.7845849999835,Kent Ridge Stn Exit B,https://busrouter.sg/#/stops/15139,1
15141,15141,1.27275860463579,103.80095947823813,Labrador Pk Stn,https://busrouter.sg/#/stops/15141,1
15149,15149,1.27341871854745,103.80055546758587,Opp Labrador Pk Stn,https://busrouter.sg/#/stops/15149,1
15151,15151,1.27389192906939,103.79822208982421,Opp Mapletree Biz City,https://busrouter.sg/#/stops/15151,1
15159,15159,1.27426303773784,103.79839350407595,Mapletree Business City,https://busrouter.sg/#/stops/15159,1
15161,15161,1.27443806198132,103.79666055940478,Pasir Panjang Ctr,https://busrouter.sg/#/stops/15161,1
15169,15169,1.27481499269165,103.79673994290195,Harbourside Ind Bldg 2,https://busrouter.sg/#/stops/15169,1
15181,15181,1.29108496444522,103.78541356072027,Opp Ascent,https://busrouter.sg/#/stops/15181,1
15189,15189,1.29079779477822,103.78550255759306,Ascent,https://busrouter.sg/#/stops/15189,1
15191,15191,1.27581227029734,103.79263571257981,Pasir Panjang Stn/Fc,https://busrouter.sg/#/stops/15191,1
15199,15199,1.27604240853686,103.79318399639808,Opp Currency Hse,https://busrouter.sg/#/stops/15199,1
15201,15201,1.27680819120105,103.78970861437152,Aft Pasir Panjang Stn,https://busrouter.sg/#/stops/15201,1
15209,15209,1.27706561928684,103.79023432729963,Bef Pasir Panjang Stn,https://busrouter.sg/#/stops/15209,1
15211,15211,1.27792442096507,103.78642808592167,Opp Pasir View Pk,https://busrouter.sg/#/stops/15211,1
15219,15219,1.27818114088895,103.78701031206879,Pasir View Pk,https://busrouter.sg/#/stops/15219,1
15221,15221,1.27949923466491,103.78548955401584,Aft Sth Buona Vista Rd,https://busrouter.sg/#/stops/15221,1
15229,15229,1.27937638961898,103.78572727156029,Bef Sth Buona Vista Rd,https://busrouter.sg/#/stops/15229,1
16009,16009,1.29425341056334,103.76988323197696,Kent Ridge Ter,https://busrouter.sg/#/stops/16009,1
16011,16011,1.28277766355314,103.78186930413443,Opp Haw Par Villa Stn,https://busrouter.sg/#/stops/16011,1
16019,16019,1.28278078585184,103.78217614858187,Haw Par Villa Stn,https://busrouter.sg/#/stops/16019,1
16021,16021,1.28625793147796,103.77981027693801,Opp Gloria Mansion,https://busrouter.sg/#/stops/16021,1
16029,16029,1.28608472200879,103.78022138902949,Gloria Mansion,https://busrouter.sg/#/stops/16029,1
16031,16031,1.28800629048399,103.77846479413628,Opp S'pore Science Pk II,https://busrouter.sg/#/stops/16031,1
16039,16039,1.28799020188116,103.77872029260048,S'pore Science Pk II,https://busrouter.sg/#/stops/16039,1
16041,16041,1.2893086506189,103.77660095143266,OPP LUXE VILLE,https://busrouter.sg/#/stops/16041,1
16049,16049,1.28910696351866,103.77738952047318,WHITEHAVEN,https://busrouter.sg/#/stops/16049,1
16051,16051,1.29014861601908,103.77426036615236,The Crystal Tabernacle Ch,https://busrouter.sg/#/stops/16051,1
16059,16059,1.28967266173408,103.77594136139503,Jamiyah Halfway Hse,https://busrouter.sg/#/stops/16059,1
16061,16061,1.29046257201356,103.77356171611027,Opp Heng Mui Keng Terr,https://busrouter.sg/#/stops/16061,1
16069,16069,1.290648611,103.7736967,Heng Mui Keng Terr,https://busrouter.sg/#/stops/16069,1
16071,16071,1.29129940835907,103.77117221155989,Opp Pasir Panjang PO,https://busrouter.sg/#/stops/16071,1
16079,16079,1.29138264862382,103.77129836184207,Bef Pasir Panjang PO,https://busrouter.sg/#/stops/16079,1
16081,16081,1.29195777797363,103.76866138900287,Aft Palm Green Condo,https://busrouter.sg/#/stops/16081,1
16089,16089,1.29201138346787,103.76908420716119,Aft Clementi Rd,https://busrouter.sg/#/stops/16089,1
16091,16091,1.299275,103.779369,Opp SIT Dover,https://busrouter.sg/#/stops/16091,1
16099,16099,1.30061249997689,103.77815138886747,SIT Dover,https://busrouter.sg/#/stops/16099,1
16101,16101,1.28923831874246,103.77969239279669,Inst Of Micro-Electronics,https://busrouter.sg/#/stops/16101,1
16109,16109,1.28911169277414,103.77950843257454,The Alpha,https://busrouter.sg/#/stops/16109,1
16111,16111,1.28700981956328,103.7828311158184,Aries,https://busrouter.sg/#/stops/16111,1
16119,16119,1.28697650703193,103.78260551222012,Teletech Pk,https://busrouter.sg/#/stops/16119,1
16121,16121,1.28651130049582,103.78345136824991,Galen,https://busrouter.sg/#/stops/16121,1
16131,16131,1.29487639088562,103.76935201010454,Opp Kent Ridge Ter,https://busrouter.sg/#/stops/16131,1
16139,16139,1.29537944399618,103.76974861100446,Bef Kent Ridge Ter,https://busrouter.sg/#/stops/16139,1
16141,16141,1.29786833526113,103.76959523650599,Tentera Diraja Mque,https://busrouter.sg/#/stops/16141,1
16149,16149,1.29781833402646,103.76994027003138,NUS Fac Of Architecture,https://busrouter.sg/#/stops/16149,1
16151,16151,1.30076138899694,103.76993555602371,The Japanese Pr Sch,https://busrouter.sg/#/stops/16151,1
16159,16159,1.30060333385651,103.77017032679849,NUS Fac Of Engrg,https://busrouter.sg/#/stops/16159,1
16161,16161,1.30107500001488,103.77369416698464,Nus Museums,https://busrouter.sg/#/stops/16161,1
16169,16169,1.30098333297992,103.77270416701658,NUS Raffles Hall,https://busrouter.sg/#/stops/16169,1
16171,16171,1.29890150201437,103.77438231319462,Yusof Ishak Hse,https://busrouter.sg/#/stops/16171,1
16179,16179,1.29898164227099,103.7741773272528,Opp Yusof Ishak Hse,https://busrouter.sg/#/stops/16179,1
16181,16181,1.29656572408064,103.77254247664239,Ctrl Lib,https://busrouter.sg/#/stops/16181,1
16189,16189,1.29736100001827,103.77284799997702,Information Technology,https://busrouter.sg/#/stops/16189,1
16191,16191,1.29614307417349,103.7703702141818,Opp NUS Fac Of Architect,https://busrouter.sg/#/stops/16191,1
16199,16199,1.29639303583424,103.77072917887465,NUS Fac Of Design & Env,https://busrouter.sg/#/stops/16199,1
16201,16201,1.28130063164133,103.78410758834183,Barossa Gdns,https://busrouter.sg/#/stops/16201,1
16209,16209,1.28159092769912,103.78400650244838,HORIZON RESIDENCES,https://busrouter.sg/#/stops/16209,1
16211,16211,1.27941861098854,103.78357583299086,Wharves Bldg,https://busrouter.sg/#/stops/16211,1
16219,16219,1.28015833301245,103.78362361100768,Opp Wharves Bldg,https://busrouter.sg/#/stops/16219,1
16221,16221,1.28297585453544,103.78118424868649,Opp Haw Par Villa Stn,https://busrouter.sg/#/stops/16221,1
16229,16229,1.2830090731877,103.78159959377587,Haw Par Villa Stn,https://busrouter.sg/#/stops/16229,1
16231,16231,1.28635947284714,103.77852933168337,Wholesale Ctr,https://busrouter.sg/#/stops/16231,1
16239,16239,1.28643527800393,103.77893444397212,Opp Wholesale Ctr,https://busrouter.sg/#/stops/16239,1
16241,16241,1.28910305603308,103.77352611096799,Bef West Coast Pk,https://busrouter.sg/#/stops/16241,1
16249,16249,1.28928277099215,103.77400682988979,Bef Wholesale Ctr,https://busrouter.sg/#/stops/16249,1
16891,16891,1.30982186660782,103.76816139829276,Opp Blk 420A,https://busrouter.sg/#/stops/16891,1
16991,16991,1.30777929773028,103.76988582423061,Opp Nan Hua High Sch,https://busrouter.sg/#/stops/16991,1
17009,17009,1.31491572870629,103.76412225438476,Clementi Int,https://busrouter.sg/#/stops/17009,1
17011,17011,1.29386900823232,103.76688187253777,Opp Varsity Pk,https://busrouter.sg/#/stops/17011,1
17019,17019,1.2937974792702,103.76705176995323,Varsity Pk,https://busrouter.sg/#/stops/17019,1
17021,17021,1.29673702633957,103.76691201794645,Waseda S Snr High Sch,https://busrouter.sg/#/stops/17021,1
17029,17029,1.29694570097768,103.76710295331488,Opp Waseda S Snr High Sch,https://busrouter.sg/#/stops/17029,1
17031,17031,1.30172305827699,103.76567633935802,Kent Ridge Sec Sch,https://busrouter.sg/#/stops/17031,1
17039,17039,1.3015316464856,103.76606427132043,Opp Kent Ridge Sec Sch,https://busrouter.sg/#/stops/17039,1
17041,17041,1.3042101570614,103.76455953939507,Blk 726 Clementi West Mkt,https://busrouter.sg/#/stops/17041,1
17049,17049,1.30470638200942,103.76459821893782,Blk 601,https://busrouter.sg/#/stops/17049,1
17051,17051,1.31726409983754,103.76240145648879,Opp Regent Pk,https://busrouter.sg/#/stops/17051,1
17059,17059,1.31694333299923,103.76170111103328,Regent Pk,https://busrouter.sg/#/stops/17059,1
17061,17061,1.30775834752765,103.76180505768346,Blk 701,https://busrouter.sg/#/stops/17061,1
17069,17069,1.3077663717505,103.76214066046377,Opp Blk 701,https://busrouter.sg/#/stops/17069,1
17071,17071,1.30891781912545,103.76044433406533,Blk 513,https://busrouter.sg/#/stops/17071,1
17079,17079,1.30968304242083,103.75999360222924,Blk 512,https://busrouter.sg/#/stops/17079,1
17081,17081,1.299503055534,103.76457888891022,Aft West Coast Highway,https://busrouter.sg/#/stops/17081,1
17091,17091,1.30904805161426,103.77157783850733,Aft Clementi Ave 1,https://busrouter.sg/#/stops/17091,1
17099,17099,1.3078304704809,103.77165274445558,YALE-NUS COLLEGE,https://busrouter.sg/#/stops/17099,1
17101,17101,1.31487473157856,103.77179195235537,Blk 352,https://busrouter.sg/#/stops/17101,1
17109,17109,1.31552714122807,103.77218311911328,Opp Blk 352,https://busrouter.sg/#/stops/17109,1
17111,17111,1.31779809827118,103.77124639148465,Blk 343,https://busrouter.sg/#/stops/17111,1
17119,17119,1.31728446989719,103.77193266319905,Opp Blk 343,https://busrouter.sg/#/stops/17119,1
17121,17121,1.30476410258543,103.76944539352431,Blk 610,https://busrouter.sg/#/stops/17121,1
17129,17129,1.30514136653386,103.76985839745124,Aft NUS High Sch,https://busrouter.sg/#/stops/17129,1
17131,17131,1.3080413890204,103.76591111102081,Clementi Flyover,https://busrouter.sg/#/stops/17131,1
17139,17139,1.30903304650021,103.7658699915105,Aft Clementi Swim Cplx,https://busrouter.sg/#/stops/17139,1
17141,17141,1.3109950000148,103.76349999999258,Clementi Stadium,https://busrouter.sg/#/stops/17141,1
17149,17149,1.31171515103681,103.76346179699715,Blk 426,https://busrouter.sg/#/stops/17149,1
17151,17151,1.31169519353522,103.76960993525367,Blk 410,https://busrouter.sg/#/stops/17151,1
17159,17159,1.311975556,103.7698144,Blk 365,https://busrouter.sg/#/stops/17159,1
17161,17161,1.31240993603605,103.76685476875124,Blk 455,https://busrouter.sg/#/stops/17161,1
17169,17169,1.31284527799656,103.76679666702314,Blk 329,https://busrouter.sg/#/stops/17169,1
17171,17171,1.31497399268611,103.76502698264449,Clementi Stn Exit A,https://busrouter.sg/#/stops/17171,1
17179,17179,1.31528191560846,103.76536000516927,Clementi Stn Exit B,https://busrouter.sg/#/stops/17179,1
17181,17181,1.31749570803723,103.7638854582427,Opp Blk 317,https://busrouter.sg/#/stops/17181,1
17189,17189,1.31790502165515,103.76406408827933,Blk 317,https://busrouter.sg/#/stops/17189,1
17191,17191,1.305669444,103.7698914,NUS High Sch,https://busrouter.sg/#/stops/17191,1
17201,17201,1.32055715133061,103.76734890374861,Blk 308,https://busrouter.sg/#/stops/17201,1
17211,17211,1.31828806129678,103.7658972301256,Bet Blks 315/318,https://busrouter.sg/#/stops/17211,1
17219,17219,1.31820000002277,103.76615861100824,Blk 376,https://busrouter.sg/#/stops/17219,1
17221,17221,1.31735631283972,103.76790022594946,Blk 377,https://busrouter.sg/#/stops/17221,1
17229,17229,1.31728402491862,103.76824211745355,Blk 335,https://busrouter.sg/#/stops/17229,1
17239,17239,1.312440556,103.7658489,NTUC Fairprice,https://busrouter.sg/#/stops/17239,1
17241,17241,1.31519114798349,103.76905503649127,Blk 334,https://busrouter.sg/#/stops/17241,1
17249,17249,1.315171111,103.7693364,Blk 355,https://busrouter.sg/#/stops/17249,1
17251,17251,1.31148,103.76744,Blk 460,https://busrouter.sg/#/stops/17251,1
17259,17259,1.31092798217655,103.76746074010758,Opp Blk 460,https://busrouter.sg/#/stops/17259,1
17269,17269,1.30513563161538,103.76274177899958,Blk 730,https://busrouter.sg/#/stops/17269,1
17279,17279,1.30292494255611,103.76319287727786,Blk 723,https://busrouter.sg/#/stops/17279,1
17289,17289,1.30232494247638,103.7647147428673,West Coast CC,https://busrouter.sg/#/stops/17289,1
17291,17291,1.29035140506061,103.7696982607242,West Coast Pk,https://busrouter.sg/#/stops/17291,1
17299,17299,1.29060555603074,103.77005055601747,Opp West Coast Pk,https://busrouter.sg/#/stops/17299,1
17301,17301,1.29495361097608,103.76516694401265,Opp West Coast View,https://busrouter.sg/#/stops/17301,1
17309,17309,1.29537083302023,103.7652455560114,West Coast View,https://busrouter.sg/#/stops/17309,1
17311,17311,1.30101698629873,103.76229444678326,Opp Blk 801C,https://busrouter.sg/#/stops/17311,1
17319,17319,1.30183915639239,103.76229972130764,Blk 716,https://busrouter.sg/#/stops/17319,1
17321,17321,1.30483416696998,103.76035361097789,Tien Wah Press Bldg,https://busrouter.sg/#/stops/17321,1
17329,17329,1.30505055600585,103.76058388902574,Blk 705,https://busrouter.sg/#/stops/17329,1
17331,17331,1.30758833300768,103.75833111102287,Opp Blk 518,https://busrouter.sg/#/stops/17331,1
17339,17339,1.30785722199073,103.75850472198644,Blk 518,https://busrouter.sg/#/stops/17339,1
17351,17351,1.29358000003179,103.76576444402885,Aft Clementi Rd,https://busrouter.sg/#/stops/17351,1
17359,17359,1.29333722200355,103.76621750002619,Bef Clementi Rd,https://busrouter.sg/#/stops/17359,1
17361,17361,1.29859750001329,103.76346250000067,Opp West Coast Link,https://busrouter.sg/#/stops/17361,1
17369,17369,1.29840583296856,103.76386861099263,Aft West Coast Link,https://busrouter.sg/#/stops/17369,1
17371,17371,1.32058194734278,103.76356592222618,Blk 201,https://busrouter.sg/#/stops/17371,1
17379,17379,1.32049089180327,103.76389432891798,Blk 304,https://busrouter.sg/#/stops/17379,1
17381,17381,1.29907638900012,103.76686444402534,West Bay Resort Condo,https://busrouter.sg/#/stops/17381,1
17389,17389,1.29908138901268,103.76700194402241,Opp West Bay Resort Condo,https://busrouter.sg/#/stops/17389,1
18011,18011,1.28087089714667,103.8021033300325,Aft Hortpark,https://busrouter.sg/#/stops/18011,1
18019,18019,1.28091055556275,103.80252305556165,Bef Telok Blangah Hill Pk,https://busrouter.sg/#/stops/18019,1
18021,18021,1.29645297711413,103.7889243029247,Opp GEMPLUS,https://busrouter.sg/#/stops/18021,1
18029,18029,1.29609811481527,103.78918045190079,Tempco Mfg,https://busrouter.sg/#/stops/18029,1
18041,18041,1.28836025261771,103.7931740283919,Normanton Pk,https://busrouter.sg/#/stops/18041,1
18049,18049,1.29018147748939,103.79208093037771,Opp Science Pk,https://busrouter.sg/#/stops/18049,1
18051,18051,1.29863776004531,103.7873441662514,One-North Stn,https://busrouter.sg/#/stops/18051,1
18059,18059,1.29849138898115,103.78720666698497,Opp One-North Stn,https://busrouter.sg/#/stops/18059,1
18061,18061,1.29671588928647,103.78738045694247,Blk 71,https://busrouter.sg/#/stops/18061,1
18069,18069,1.29649064143644,103.7875521182857,Opp Blk 71,https://busrouter.sg/#/stops/18069,1
18071,18071,1.295425,103.784491,NUH,https://busrouter.sg/#/stops/18071,1
18079,18079,1.2964817739742,103.78455389999202,Opp NUH,https://busrouter.sg/#/stops/18079,1
18081,18081,1.29478519265463,103.78733754155819,Blk 55,https://busrouter.sg/#/stops/18081,1
18089,18089,1.29480675923682,103.78757357729762,S'pore Post,https://busrouter.sg/#/stops/18089,1
18099,18099,1.29393169432811,103.78953616896972,Bef Ayer Rajah Cres,https://busrouter.sg/#/stops/18099,1
18101,18101,1.292825,103.786354,PSB Science Pk Bldg,https://busrouter.sg/#/stops/18101,1
18109,18109,1.29403436577434,103.78672599789039,Opp PSB Science Pk Bldg,https://busrouter.sg/#/stops/18109,1
18111,18111,1.30059305599352,103.78448416698873,Fairfield Meth Pr Sch,https://busrouter.sg/#/stops/18111,1
18119,18119,1.30004638896912,103.78466749999943,Opp Fairfield Meth Pr Sch,https://busrouter.sg/#/stops/18119,1
18121,18121,1.29751168042934,103.7854209482613,Opp Ayer Rajah Ind Est,https://busrouter.sg/#/stops/18121,1
18129,18129,1.29776225378985,103.78570767644749,Ayer Rajah Ind Est,https://busrouter.sg/#/stops/18129,1
18131,18131,1.28950073498414,103.7918327963467,Science Pk,https://busrouter.sg/#/stops/18131,1
18141,18141,1.30418279677397,103.78788091438994,Aft Anglo-Chinese JC,https://busrouter.sg/#/stops/18141,1
18149,18149,1.30253001117245,103.78724143833315,Essec Business Sch,https://busrouter.sg/#/stops/18149,1
18151,18151,1.30051083054497,103.78864286195989,Opp One-North Stn/Galaxis,https://busrouter.sg/#/stops/18151,1
18159,18159,1.3003468994065,103.78858368998314,One-North Stn/Galaxis,https://busrouter.sg/#/stops/18159,1
18171,18171,1.29905478616662,103.79412910351343,Bef Weyhill Cl,https://busrouter.sg/#/stops/18171,1
18179,18179,1.29988107543841,103.79304547568137,Opp Weyhill Cl,https://busrouter.sg/#/stops/18179,1
18181,18181,1.29714585347396,103.79369361976173,Opp Tanglin Trust Sch,https://busrouter.sg/#/stops/18181,1
18189,18189,1.29839662957663,103.79390316193482,Tanglin Trust Sch,https://busrouter.sg/#/stops/18189,1
18191,18191,1.29445611099682,103.79594388899301,Bef Whitchurch Rd,https://busrouter.sg/#/stops/18191,1
18199,18199,1.29544342826531,103.79407617440387,Aft Whitchurch Rd,https://busrouter.sg/#/stops/18199,1
18201,18201,1.29498098725808,103.7932287526945,Mediacorp Campus,https://busrouter.sg/#/stops/18201,1
18211,18211,1.29161816867907,103.79522263706237,Infinite Studios,https://busrouter.sg/#/stops/18211,1
18221,18221,1.29630067771211,103.78346553393848,NUH,https://busrouter.sg/#/stops/18221,1
18239,18239,1.29678943404486,103.78318782626637,Opp NUH,https://busrouter.sg/#/stops/18239,1
18241,18241,1.29092304543197,103.78707861052065,Opp Dnv Gl Technology Ctr,https://busrouter.sg/#/stops/18241,1
18249,18249,1.29072399998624,103.78712700002762,Dnv Gl Technology Ctr,https://busrouter.sg/#/stops/18249,1
18251,18251,1.29068138903164,103.78845361097359,Opp Reuters,https://busrouter.sg/#/stops/18251,1
18261,18261,1.29015996757499,103.78933806183707,Opp DSO Natl Laboratories,https://busrouter.sg/#/stops/18261,1
18269,18269,1.29010333301913,103.78918694399599,Bef Reuters,https://busrouter.sg/#/stops/18269,1
18271,18271,1.28840699998743,103.78992778459765,Blk 85,https://busrouter.sg/#/stops/18271,1
18279,18279,1.28840636755823,103.78976622482348,Opp Blk 85,https://busrouter.sg/#/stops/18279,1
18281,18281,1.28752556916883,103.7912122154174,The Rutherford,https://busrouter.sg/#/stops/18281,1
18289,18289,1.28738105702672,103.7912059790003,Opp The Rutherford,https://busrouter.sg/#/stops/18289,1
18301,18301,1.29738521493261,103.7809269856724,Lim Seng Tjoe Bldg (LT 27),https://busrouter.sg/#/stops/18301,1
18309,18309,1.29752011664987,103.78134198615086,Blk S17,https://busrouter.sg/#/stops/18309,1
18311,18311,1.29743814797617,103.77792133383952,Blk S12,https://busrouter.sg/#/stops/18311,1
18319,18319,1.29752638901257,103.77813111102236,Opp University Hall,https://busrouter.sg/#/stops/18319,1
18321,18321,1.29879333297449,103.77561916702605,Opp University Health Ctr,https://busrouter.sg/#/stops/18321,1
18329,18329,1.2989244439988,103.77611416701255,University Health Ctr,https://busrouter.sg/#/stops/18329,1
18331,18331,1.2937072200211,103.78489139998855,Kent Ridge Stn Exit A/NUH,https://busrouter.sg/#/stops/18331,1
18339,18339,1.29379302903228,103.78507910002646,Opp Kent Ridge Stn Exit A,https://busrouter.sg/#/stops/18339,1
19011,19011,1.30781638901709,103.78423666696615,Blk 19A CP,https://busrouter.sg/#/stops/19011,1
19019,19019,1.30807305598128,103.78475916699466,Blk 27,https://busrouter.sg/#/stops/19019,1
19021,19021,1.30965490194051,103.7812018067838,SP SMA,https://busrouter.sg/#/stops/19021,1
19029,19029,1.3095609201372,103.78201879388226,Opp SP SMA,https://busrouter.sg/#/stops/19029,1
19031,19031,1.31123416666912,103.77838361113201,Dover Stn Exit A,https://busrouter.sg/#/stops/19031,1
19039,19039,1.31167951129602,103.77868390552867,Dover Stn Exit B,https://busrouter.sg/#/stops/19039,1
19041,19041,1.31235972197855,103.77552750001337,Opp Sch Of Science & Tech,https://busrouter.sg/#/stops/19041,1
19049,19049,1.31266302174215,103.77479215922537,Sch Of Science & Tech,https://busrouter.sg/#/stops/19049,1
19051,19051,1.30896444398008,103.77392333299538,New Town Sec Sch,https://busrouter.sg/#/stops/19051,1
19059,19059,1.30894500001531,103.7727225000061,University Town,https://busrouter.sg/#/stops/19059,1
19061,19061,1.30752442673366,103.77782122462926,Ayer Rajah Telecoms,https://busrouter.sg/#/stops/19061,1
19069,19069,1.30778758326419,103.77671170466877,Opp Ayer Rajah Telecoms,https://busrouter.sg/#/stops/19069,1
19071,19071,1.30515500002931,103.78108305597279,Opp Acs Independent,https://busrouter.sg/#/stops/19071,1
19079,19079,1.30610305600543,103.78012972199127,Dover Ct Intl Sch,https://busrouter.sg/#/stops/19079,1
19081,19081,1.30256972202724,103.78282472199413,Opp ACS Boarding Sch,https://busrouter.sg/#/stops/19081,1
19089,19089,1.30370305599194,103.78184388900041,Acs Independent,https://busrouter.sg/#/stops/19089,1
19091,19091,1.30739277801307,103.78208222199827,S'pore Poly,https://busrouter.sg/#/stops/19091,1
19099,19099,1.30697118032996,103.78191236221397,Opp S'pore Poly,https://busrouter.sg/#/stops/19099,1
20011,20011,1.31308624553797,103.76128731220228,Blk 506,https://busrouter.sg/#/stops/20011,1
20019,20019,1.31357611099308,103.7615108330155,Blk 431,https://busrouter.sg/#/stops/20019,1
20021,20021,1.31675923723731,103.75788959223745,NEWEST,https://busrouter.sg/#/stops/20021,1
20029,20029,1.31772833949651,103.75767989744158,OPP NEWEST,https://busrouter.sg/#/stops/20029,1
20031,20031,1.32055987103977,103.75464677812963,The Infiniti,https://busrouter.sg/#/stops/20031,1
20039,20039,1.32102499760642,103.75471510655738,Opp The Infiniti,https://busrouter.sg/#/stops/20039,1
20051,20051,1.32258708167298,103.74754428861822,Cycle & Carriage,https://busrouter.sg/#/stops/20051,1
20059,20059,1.32332108750232,103.74769351004639,Opp Cycle & Carriage,https://busrouter.sg/#/stops/20059,1
20061,20061,1.32380614051658,103.74298566424717,Aft Jurong Town Hall Rd,https://busrouter.sg/#/stops/20061,1
20069,20069,1.32405636523113,103.74418793943124,Bef Jurong Town Hall Rd,https://busrouter.sg/#/stops/20069,1
20081,20081,1.32660472912447,103.73879228035435,Carrier S'pore,https://busrouter.sg/#/stops/20081,1
20089,20089,1.32702967705527,103.7392229529496,Opp Carrier S'pore,https://busrouter.sg/#/stops/20089,1
20101,20101,1.31993714188512,103.76221926730373,Nan Hua Pr Sch,https://busrouter.sg/#/stops/20101,1
20109,20109,1.32085220079341,103.76206999856427,Blk 203,https://busrouter.sg/#/stops/20109,1
20121,20121,1.32023972200054,103.73707999997312,Opp Blk 51,https://busrouter.sg/#/stops/20121,1
20129,20129,1.32034555007728,103.73754105423453,Bet Blks 50/51,https://busrouter.sg/#/stops/20129,1
20131,20131,1.3155936163792,103.7518511517015,S'pore Food Industries Bldg,https://busrouter.sg/#/stops/20131,1
20139,20139,1.31584166892255,103.75204376675156,Opp Angliss Bldg,https://busrouter.sg/#/stops/20139,1
20141,20141,1.31771999750607,103.7487710528033,Opp Blk 408,https://busrouter.sg/#/stops/20141,1
20149,20149,1.31795969674094,103.74897266925451,Blk 408,https://busrouter.sg/#/stops/20149,1
20151,20151,1.31829668687275,103.74631047251557,Opp Blk 411,https://busrouter.sg/#/stops/20151,1
20159,20159,1.31851137522994,103.74640166581365,Blk 411,https://busrouter.sg/#/stops/20159,1
20161,20161,1.31915476642967,103.74213695526599,Opp Blks 34/35,https://busrouter.sg/#/stops/20161,1
20169,20169,1.31928347830225,103.74251246450982,Blk 35,https://busrouter.sg/#/stops/20169,1
20171,20171,1.31967681449311,103.73984434693502,Opp Blk 47,https://busrouter.sg/#/stops/20171,1
20179,20179,1.32000211967899,103.73910069465363,Aft Teban Gdns Rd,https://busrouter.sg/#/stops/20179,1
20181,20181,1.32048478912567,103.74745845796298,Ayer Rajah CC,https://busrouter.sg/#/stops/20181,1
20189,20189,1.32030501410074,103.74727299945995,Opp Ayer Rajah CC,https://busrouter.sg/#/stops/20189,1
20191,20191,1.31924166701026,103.74845638901051,Blk 407,https://busrouter.sg/#/stops/20191,1
20199,20199,1.31908111097886,103.74819972197395,Blk 410,https://busrouter.sg/#/stops/20199,1
20201,20201,1.32127611097845,103.74340527799251,Teban Gdn PO,https://busrouter.sg/#/stops/20201,1
20209,20209,1.32043333301332,103.7440744439939,Bef Jurong Town Hall Rd,https://busrouter.sg/#/stops/20209,1
20211,20211,1.32177193921987,103.74184000241928,Blk 41,https://busrouter.sg/#/stops/20211,1
20219,20219,1.32205689998871,103.74143326706027,Opp Blk 41,https://busrouter.sg/#/stops/20219,1
20231,20231,1.32234407286907,103.7394439595661,Bef Hasanah Mque,https://busrouter.sg/#/stops/20231,1
20239,20239,1.32246879634748,103.73947011845992,Aft Hasanah Mque,https://busrouter.sg/#/stops/20239,1
20241,20241,1.32116277513743,103.73638362986378,Opp Blk 54,https://busrouter.sg/#/stops/20241,1
20249,20249,1.32162000001571,103.73670359829424,Blk 54,https://busrouter.sg/#/stops/20249,1
20251,20251,1.31975500989852,103.74447102076279,Bef Teban Gdns Rd,https://busrouter.sg/#/stops/20251,1
20259,20259,1.31962187605788,103.74477002532701,C'wealth Sec Sch,https://busrouter.sg/#/stops/20259,1
20261,20261,1.3215997308483,103.74546423225033,Aft Pandan Gdns,https://busrouter.sg/#/stops/20261,1
20269,20269,1.32151780618055,103.74580944947768,Bef Pandan Gdns,https://busrouter.sg/#/stops/20269,1
20271,20271,1.32527553308365,103.74550887325397,Opp German Ctr,https://busrouter.sg/#/stops/20271,1
20281,20281,1.31234219524906,103.75484214400765,Opp The Japanese Sec Sch,https://busrouter.sg/#/stops/20281,1
20289,20289,1.31248801817062,103.75503415636196,The Japanese Sec Sch,https://busrouter.sg/#/stops/20289,1
20291,20291,1.31095062259154,103.75771430804498,Tanglin Sec Sch,https://busrouter.sg/#/stops/20291,1
20299,20299,1.3109280417106,103.75857544044081,Opp Tanglin Sec Sch,https://busrouter.sg/#/stops/20299,1
20309,20309,1.31062303116794,103.75403766163392,Blk L Pandan Light Ind Pk,https://busrouter.sg/#/stops/20309,1
20319,20319,1.31259468493848,103.75284421307401,Blk T Pandan Light Ind Pk,https://busrouter.sg/#/stops/20319,1
20329,20329,1.31503304622752,103.75102066090028,S'pore Food Ind,https://busrouter.sg/#/stops/20329,1
20331,20331,1.31329138901596,103.74926333296754,Vejoil Pte Ltd,https://busrouter.sg/#/stops/20331,1
20341,20341,1.31186472196722,103.75047333297755,Pan Tech Ind Cplx,https://busrouter.sg/#/stops/20341,1
21011,21011,1.32534328766029,103.72866849877529,Aft Jurong Lake,https://busrouter.sg/#/stops/21011,1
21019,21019,1.32554867828642,103.72703317988619,Aft Yuan Ching Rd,https://busrouter.sg/#/stops/21019,1
21021,21021,1.32419322170223,103.72379008890384,Bef Jurong Port Rd,https://busrouter.sg/#/stops/21021,1
21029,21029,1.32429728567538,103.72180766916203,AFT CORP PL,https://busrouter.sg/#/stops/21029,1
21041,21041,1.3209197220107,103.72012027797446,Aft Jln Terusan,https://busrouter.sg/#/stops/21041,1
21049,21049,1.32107250538852,103.72024520956326,Bef Jln Terusan,https://busrouter.sg/#/stops/21049,1
21051,21051,1.312256111,103.7304481,Bef Penjuru Rd,https://busrouter.sg/#/stops/21051,1
21059,21059,1.311953889,103.7301381,Aft Penjuru Rd,https://busrouter.sg/#/stops/21059,1
21069,21069,1.31237305598007,103.7191852779968,Bef Jln Tepong,https://busrouter.sg/#/stops/21069,1
21071,21071,1.31394221438857,103.72226742161243,Jurong Abattoir,https://busrouter.sg/#/stops/21071,1
21079,21079,1.31342751032359,103.72279763377816,Opp Jurong Abattoir,https://busrouter.sg/#/stops/21079,1
21089,21089,1.31206487520147,103.72296452520035,Bef Jln Buroh,https://busrouter.sg/#/stops/21089,1
21099,21099,1.31014377264327,103.71110346092364,Jurong Island Checkpt,https://busrouter.sg/#/stops/21099,1
21109,21109,1.31100299869144,103.72109770773132,Ctrl Fish Proc Fty,https://busrouter.sg/#/stops/21109,1
21111,21111,1.31442640542243,103.71238327744312,Aft Jurong Pier Rd,https://busrouter.sg/#/stops/21111,1
21119,21119,1.31397291780129,103.71201936489673,Bef Jurong Pier Rd,https://busrouter.sg/#/stops/21119,1
21121,21121,1.31469130993085,103.71601687480324,SPC Svc Stn,https://busrouter.sg/#/stops/21121,1
21129,21129,1.31427443753325,103.71493141053244,Opp SPC Svc Stn,https://busrouter.sg/#/stops/21129,1
21131,21131,1.31470833302608,103.71799361097378,Bef Jurong Port Rd,https://busrouter.sg/#/stops/21131,1
21139,21139,1.31433044660166,103.71846563037732,Aft Jurong Port Rd,https://busrouter.sg/#/stops/21139,1
21141,21141,1.31517431113868,103.71957368500223,Aft Jln Buroh,https://busrouter.sg/#/stops/21141,1
21149,21149,1.315633,103.719896,Jurong Port Workshops,https://busrouter.sg/#/stops/21149,1
21151,21151,1.3169920318205,103.71988944330612,CWT Distripark,https://busrouter.sg/#/stops/21151,1
21159,21159,1.31868562417111,103.72042922086165,Sin Soon Huat,https://busrouter.sg/#/stops/21159,1
21161,21161,1.35043949411648,103.7127413228723,Blk 216B,https://busrouter.sg/#/stops/21161,1
21169,21169,1.35074356093462,103.71275812568066,Opp Blk 216B,https://busrouter.sg/#/stops/21169,1
21171,21171,1.3258163890121,103.71906611098208,OPP CORP PL,https://busrouter.sg/#/stops/21171,1
21179,21179,1.32586166697514,103.71929527796603,CORP PL,https://busrouter.sg/#/stops/21179,1
21181,21181,1.329915,103.720953,Opp Blk 161,https://busrouter.sg/#/stops/21181,1
21189,21189,1.33026046590704,103.72122294249655,Blk 161,https://busrouter.sg/#/stops/21189,1
21191,21191,1.33290982216515,103.72044541450344,Opp Blk 178,https://busrouter.sg/#/stops/21191,1
21199,21199,1.333309472028,103.72051292839538,Blk 178,https://busrouter.sg/#/stops/21199,1
21201,21201,1.33683396424463,103.71778639139953,Opp Taman Jurong Greens,https://busrouter.sg/#/stops/21201,1
21209,21209,1.33687648564633,103.71805599895127,Taman Jurong Greens,https://busrouter.sg/#/stops/21209,1
21211,21211,1.34004972199531,103.71606833298439,Opp Lakepoint Condo,https://busrouter.sg/#/stops/21211,1
21219,21219,1.34010356133429,103.71625930906035,Lakepoint Condo,https://busrouter.sg/#/stops/21219,1
21229,21229,1.34206,103.716007,Opp S'Pore A'Space Mfg,https://busrouter.sg/#/stops/21229,1
21231,21231,1.34359535075913,103.71599040338819,Blk 203,https://busrouter.sg/#/stops/21231,1
21239,21239,1.34450482589547,103.71633035405124,Opp Blk 203,https://busrouter.sg/#/stops/21239,1
21241,21241,1.34973665190679,103.71235425312759,Opp Blk 213,https://busrouter.sg/#/stops/21241,1
21249,21249,1.34958421982025,103.71249318123603,Blk 213,https://busrouter.sg/#/stops/21249,1
21251,21251,1.33624121368399,103.71034741400833,Sime Darby,https://busrouter.sg/#/stops/21251,1
21259,21259,1.33604134949327,103.71043700168366,Opp Sime Darby,https://busrouter.sg/#/stops/21259,1
21261,21261,1.33393514008105,103.71025085451481,AFT CHIN BEE AVE,https://busrouter.sg/#/stops/21261,1
21269,21269,1.33418183646412,103.71049761773749,Bef Chin Bee Ave,https://busrouter.sg/#/stops/21269,1
21271,21271,1.33465896770641,103.71947315443572,Opp Assyakirin Mque,https://busrouter.sg/#/stops/21271,1
21279,21279,1.33491282590378,103.71952517818409,Assyakirin Mque,https://busrouter.sg/#/stops/21279,1
21291,21291,1.31585422996408,103.70943351671639,Aft Jln Buroh,https://busrouter.sg/#/stops/21291,1
21299,21299,1.316014,103.709922,Bef Jln Buroh,https://busrouter.sg/#/stops/21299,1
21301,21301,1.31849721492889,103.70997054139839,Opp Jln Pesawat,https://busrouter.sg/#/stops/21301,1
21309,21309,1.3191903081711,103.71054697877872,Aft Jln Pesawat,https://busrouter.sg/#/stops/21309,1
21311,21311,1.32320514106483,103.70956380845345,Bef Tractor Rd,https://busrouter.sg/#/stops/21311,1
21319,21319,1.32377340235344,103.70980422080449,Opp Tractor Rd,https://busrouter.sg/#/stops/21319,1
21321,21321,1.32624055798556,103.70885429370763,UTOC ENGRG,https://busrouter.sg/#/stops/21321,1
21329,21329,1.32691548284142,103.70901792785014,OPP UTOC ENGRG,https://busrouter.sg/#/stops/21329,1
21331,21331,1.33029049207675,103.70796785261548,Opp Premier Milk Pte Ltd,https://busrouter.sg/#/stops/21331,1
21339,21339,1.33042465634522,103.70832322685169,Premier Milk Pte Ltd,https://busrouter.sg/#/stops/21339,1
21341,21341,1.33517345758852,103.70895825573741,Opp Beecham Pte Ltd,https://busrouter.sg/#/stops/21341,1
21349,21349,1.33506459808859,103.70924473268514,Beecham Pte Ltd,https://busrouter.sg/#/stops/21349,1
21351,21351,1.33882138642125,103.70956429008974,BEF BOON LAY WAY,https://busrouter.sg/#/stops/21351,1
21359,21359,1.33867010260834,103.7099597309989,AFT ST KINETICS,https://busrouter.sg/#/stops/21359,1
21361,21361,1.34302323304896,103.70767181671128,Blk 695,https://busrouter.sg/#/stops/21361,1
21369,21369,1.34309123717886,103.70800310705765,Opp Blk 695,https://busrouter.sg/#/stops/21369,1
21371,21371,1.34522722613512,103.70617873626036,Blk 680C,https://busrouter.sg/#/stops/21371,1
21379,21379,1.34534855216089,103.70648912988919,Blk 263,https://busrouter.sg/#/stops/21379,1
21381,21381,1.350462,103.709815,ST. JOSEPH'S HME,https://busrouter.sg/#/stops/21381,1
21389,21389,1.350059,103.709927,OPP ST. JOSEPH'S HME,https://busrouter.sg/#/stops/21389,1
21391,21391,1.34485064221938,103.70847936082643,River Valley High Sch,https://busrouter.sg/#/stops/21391,1
21399,21399,1.3448140795943,103.70805985100185,Opp River Valley High Sch,https://busrouter.sg/#/stops/21399,1
21409,21409,1.34338969264048,103.71207059648545,Blk 191,https://busrouter.sg/#/stops/21409,1
21411,21411,1.34393270141852,103.71033048575686,Opp Blk 188,https://busrouter.sg/#/stops/21411,1
21419,21419,1.34388060681347,103.71057645840757,Blk 188,https://busrouter.sg/#/stops/21419,1
21421,21421,1.34720307776277,103.71032595632526,Blk 176,https://busrouter.sg/#/stops/21421,1
21429,21429,1.34740203306581,103.71059149459593,Blk 185,https://busrouter.sg/#/stops/21429,1
21431,21431,1.34765638897246,103.71241055602675,Blk 210,https://busrouter.sg/#/stops/21431,1
21439,21439,1.34842277796612,103.71165888901649,Boon Lay CC,https://busrouter.sg/#/stops/21439,1
21441,21441,1.34638242521451,103.71326229185901,Blk 207,https://busrouter.sg/#/stops/21441,1
21449,21449,1.34639805597018,103.71306138901696,Boon Lay Shop Ctr,https://busrouter.sg/#/stops/21449,1
21451,21451,1.34524833302487,103.71473000001441,Blk 206,https://busrouter.sg/#/stops/21451,1
21459,21459,1.3455804550235,103.71491332975407,Blk 209,https://busrouter.sg/#/stops/21459,1
21461,21461,1.32731972199567,103.71799361099863,BEF TUKANG INNOVATION DR,https://busrouter.sg/#/stops/21461,1
21469,21469,1.32747500002724,103.71808527797025,Bef Chia Ping Rd,https://busrouter.sg/#/stops/21469,1
21471,21471,1.32673138898791,103.71542666702132,AFT TUKANG INNOVATION DR,https://busrouter.sg/#/stops/21471,1
21479,21479,1.3269180560083,103.71570166699784,Hup Leck Heavy Equipment,https://busrouter.sg/#/stops/21479,1
21481,21481,1.32600145997044,103.71208836146995,GRUNDFOS,https://busrouter.sg/#/stops/21481,1
21489,21489,1.32627839733404,103.71265433258445,OPP GRUNDFOS,https://busrouter.sg/#/stops/21489,1
21491,21491,1.3268635454851,103.71082676692178,Bef Boon Lay Way,https://busrouter.sg/#/stops/21491,1
21499,21499,1.3265554895957,103.71102434826084,Bef Jln Tukang,https://busrouter.sg/#/stops/21499,1
21501,21501,1.3304277146486,103.71000208357827,Bef Meiji Seika,https://busrouter.sg/#/stops/21501,1
21509,21509,1.33115639068272,103.70998723220183,Opp Meiji Seika,https://busrouter.sg/#/stops/21509,1
21511,21511,1.3331199693958,103.71107697488075,Bef Chin Bee Rd,https://busrouter.sg/#/stops/21511,1
21519,21519,1.33295908040191,103.71129155158583,Aft Chin Bee Rd,https://busrouter.sg/#/stops/21519,1
21521,21521,1.33413893275864,103.71458530428906,PB Packaging Systems,https://busrouter.sg/#/stops/21521,1
21529,21529,1.3340830392462,103.71509707566638,Opp Grandluxe,https://busrouter.sg/#/stops/21529,1
21531,21531,1.33187576098508,103.71634483335832,Clariant S'pore,https://busrouter.sg/#/stops/21531,1
21539,21539,1.331311,103.716354,Opp Kaily Packaging,https://busrouter.sg/#/stops/21539,1
21541,21541,1.33138075779669,103.71986360869532,Aft Fourth Chin Bee Rd,https://busrouter.sg/#/stops/21541,1
21549,21549,1.33088280586201,103.71899585412747,Automotive Technology,https://busrouter.sg/#/stops/21549,1
21551,21551,1.3266610431866,103.7209862100987,Blk 151,https://busrouter.sg/#/stops/21551,1
21559,21559,1.326626598883,103.72063909698713,CISCO Recall,https://busrouter.sg/#/stops/21559,1
21561,21561,1.32889315236799,103.72274321247575,Blk 158,https://busrouter.sg/#/stops/21561,1
21569,21569,1.32857203912272,103.72289813113439,Opp Blk 158,https://busrouter.sg/#/stops/21569,1
21571,21571,1.33056719470166,103.72307005592994,Opp Jurong Sec Sch,https://busrouter.sg/#/stops/21571,1
21579,21579,1.33013472279057,103.72318086110512,Jurong Sec Sch,https://busrouter.sg/#/stops/21579,1
21581,21581,1.33243350969467,103.72328639029729,Blk 65,https://busrouter.sg/#/stops/21581,1
21589,21589,1.33246568746472,103.72345805167676,Opp Blk 65,https://busrouter.sg/#/stops/21589,1
21591,21591,1.33476103645994,103.72242808341083,Opp Blk 117,https://busrouter.sg/#/stops/21591,1
21599,21599,1.33468356164521,103.72268493639599,Blk 117,https://busrouter.sg/#/stops/21599,1
21601,21601,1.33727029608815,103.72109770581518,Blk 357,https://busrouter.sg/#/stops/21601,1
21609,21609,1.33775166774993,103.72102625466782,Opp Blk 364,https://busrouter.sg/#/stops/21609,1
21611,21611,1.3383643422738,103.71931958855112,Blk 367,https://busrouter.sg/#/stops/21611,1
21619,21619,1.33793509893342,103.71816213921478,AFT CORP RD,https://busrouter.sg/#/stops/21619,1
21621,21621,1.3392149977089,103.72205929003123,Blk 354,https://busrouter.sg/#/stops/21621,1
21629,21629,1.33954476976732,103.7227567243868,Blk 334,https://busrouter.sg/#/stops/21629,1
21631,21631,1.33363626085559,103.72493610114242,Blk 115/Opp Japanese Gdn,https://busrouter.sg/#/stops/21631,1
21639,21639,1.33378861099344,103.72511638897618,Japanese Gdn/Opp Blk 115,https://busrouter.sg/#/stops/21639,1
21641,21641,1.3363012622323,103.7250086693193,Opp Lakeside Apt,https://busrouter.sg/#/stops/21641,1
21649,21649,1.33670886560508,103.72517977728532,Lakeside Apt,https://busrouter.sg/#/stops/21649,1
21651,21651,1.33873014874255,103.72402172321266,Opp Chinese Gdn,https://busrouter.sg/#/stops/21651,1
21659,21659,1.33896010542304,103.72410808486939,Chinese Gdn,https://busrouter.sg/#/stops/21659,1
21661,21661,1.34176560473259,103.72141430185464,Yuan Ching Sec Sch,https://busrouter.sg/#/stops/21661,1
21669,21669,1.34134214489014,103.7220951930324,Opp Blk 134D,https://busrouter.sg/#/stops/21669,1
21671,21671,1.33806500003375,103.72376166703002,Blk 331,https://busrouter.sg/#/stops/21671,1
21679,21679,1.3377621978639,103.72358362464975,Blk 329,https://busrouter.sg/#/stops/21679,1
21681,21681,1.34228732259066,103.71466298692037,Opp Blk 200,https://busrouter.sg/#/stops/21681,1
21689,21689,1.34241984576482,103.71442338427325,Blk 200,https://busrouter.sg/#/stops/21689,1
21691,21691,1.34107859811695,103.71138811111824,OPP SUMMERDALE,https://busrouter.sg/#/stops/21691,1
21699,21699,1.34154982082089,103.71203075013112,SUMMERDALE,https://busrouter.sg/#/stops/21699,1
21711,21711,1.34699884210956,103.7157628162222,Bet Blks 523/525,https://busrouter.sg/#/stops/21711,1
21719,21719,1.34779474567713,103.71507297402223,Opp Blk 529,https://busrouter.sg/#/stops/21719,1
21751,21751,1.33089333300685,103.72480472198433,Jurong Sec Sch,https://busrouter.sg/#/stops/21751,1
21759,21759,1.33032387572414,103.7249113116863,Opp Jurong Sec Sch,https://busrouter.sg/#/stops/21759,1
21761,21761,1.32831333299986,103.72476805601295,Blk 138B,https://busrouter.sg/#/stops/21761,1
21769,21769,1.32847554099899,103.7249037836336,Opp Blk 138B,https://busrouter.sg/#/stops/21769,1
21771,21771,1.3265799244816,103.72373023682435,AFT CORP DR,https://busrouter.sg/#/stops/21771,1
21779,21779,1.32643572160288,103.72425774502393,Aft Yuan Ching Rd,https://busrouter.sg/#/stops/21779,1
22009,22009,1.33932334709184,103.70545701843297,Boon Lay Int,https://busrouter.sg/#/stops/22009,1
22011,22011,1.32129797964322,103.7077550377112,Jurong Bird Pk,https://busrouter.sg/#/stops/22011,1
22019,22019,1.32202402246272,103.7071133033833,Opp Jurong Bird Pk,https://busrouter.sg/#/stops/22019,1
22021,22021,1.32168245080395,103.70369314086494,Givaudan,https://busrouter.sg/#/stops/22021,1
22029,22029,1.32244971744256,103.70268212142697,Opp Givaudan,https://busrouter.sg/#/stops/22029,1
22031,22031,1.32216806047952,103.69855176773174,Bef Pioneer Circus,https://busrouter.sg/#/stops/22031,1
22039,22039,1.32284076507861,103.69861624674222,Markono Holdings,https://busrouter.sg/#/stops/22039,1
22041,22041,1.31463499997457,103.69873083298778,Aft Tg Kling Rd,https://busrouter.sg/#/stops/22041,1
22049,22049,1.3144663889863,103.69788888900642,Bef Tg Kling Rd,https://busrouter.sg/#/stops/22049,1
22051,22051,1.31386916701697,103.7020447220124,Opp Buroh St,https://busrouter.sg/#/stops/22051,1
22059,22059,1.3136061110111,103.70126249997799,Aft Buroh St,https://busrouter.sg/#/stops/22059,1
22061,22061,1.31427617763344,103.70464097156747,Ceva Logistics,https://busrouter.sg/#/stops/22061,1
22069,22069,1.31365447950552,103.70379462205501,Opp Ceva Logistics,https://busrouter.sg/#/stops/22069,1
22071,22071,1.31433636827053,103.70695129035255,Bef Jurong Pier Rd,https://busrouter.sg/#/stops/22071,1
22079,22079,1.31394399203055,103.70804979014268,Aft Jurong Pier Rd,https://busrouter.sg/#/stops/22079,1
22081,22081,1.30599555710248,103.70037593299399,Opp Natsteel,https://busrouter.sg/#/stops/22081,1
22089,22089,1.30589277802592,103.70087805599307,Natsteel,https://busrouter.sg/#/stops/22089,1
22091,22091,1.30880721630907,103.6965558745042,Aft Jln Samulun,https://busrouter.sg/#/stops/22091,1
22099,22099,1.30879764761052,103.69688960154522,Bef Jln Samulun,https://busrouter.sg/#/stops/22099,1
22141,22141,1.3173330063793,103.6959517251446,Aft Jln Buroh,https://busrouter.sg/#/stops/22141,1
22149,22149,1.3173196040118,103.69631182452453,Bef Jln Buroh,https://busrouter.sg/#/stops/22149,1
22151,22151,1.32095233702714,103.69627164313702,Hitachi,https://busrouter.sg/#/stops/22151,1
22159,22159,1.32095243330175,103.69663318172152,Opp Hitachi,https://busrouter.sg/#/stops/22159,1
22161,22161,1.32551656861142,103.69643109025226,Aft Lok Yang Way,https://busrouter.sg/#/stops/22161,1
22169,22169,1.32624542877841,103.6966157738775,Aft Intl Rd,https://busrouter.sg/#/stops/22169,1
